ID_Quadrat,ID_Site,SITES,Domaine_bi,Province_n,Region_nat,Altitude,Latitude,Longitude,Substratum,Habitat,Forme,Sous_forme,Physionomi,Group_prin,Group_vege,bioclim_16,bioclim_17,bioclim_15,bioclim_14,bioclim_13,bioclim_12,bioclim_11,bioclim_10,bioclim_19,bioclim_2,bioclim_3,bioclim_4,bioclim_5,bioclim_6,bioclim_7,bioclim_8,bioclim_1,bioclim_18,bioclim_9,Superficie_tot,Superficie_eau,Thickness,Surface_water,Vas_Ric_Tot,Bry_Ric_Tot,Rich_tot
2640,408,Lac Atichikamis,Pessiere a lichens,Collines de la Grande Riviere,Basses-terres du lac Duncan,107,53.61666667,-78.3,1,Fen,Fen,Fen uniforme,Arborescent,Pessiere,Pessiere de Picea mariana a Rhododendron groenlandicum et Sphagnum fuscum,254,73,48.0835,21,95,641,-20.0667,12.9333,92,9.98333,20.6694,1356.27,20.3,-28,48.3,8.11667,-2.49167,218,-13.45,1450,435,37,1,13,5,18
2642,410,Sud Lac Awisinaukamach,Pessiere a lichens,Collines de la Grande Riviere,Basses-terres du lac Duncan,107,53.16666667,-78.43333333,1,Fen,Fen,Fen uniforme,Arborescent,Pessiere,Pessiere de Picea mariana a Chamaedaphne calyculata,251,76,46.4955,21,91,645,-19.6833,13.65,92,10.3917,21.1643,1367.23,21.3,-27.8,49.1,8.65,-1.92083,218,-12.8833,4650,300,125,0,11,2,13
2643,411,Est Lac Kapwakami,Pessiere a lichens,Collines de la Grande Riviere,Basses-terres du lac Duncan,107,53.08333333,-78.25,1,Bog,Bog,Bog uniforme,Arbustif,Pessiere,Pessiere de Picea mariana a Rhododendron groenlandicum et Sphagnum fuscum,258,75,47.4274,21,96,657,-19.4167,13.35,93,9.9,20.7547,1340.68,20.5,-27.2,47.7,8.53333,-1.90833,222,-12.55,210,15,75,0,12,8,20
2665,429,Lac Kaskamikaw,Pessiere a lichens,Collines de la Grande Riviere,Basses-terres du lac Duncan,320,53.160565,-78.159892,1,Bog,Bog,Bog uniforme,Arbustif,Ericacaie,Ericacaie de Chamaedaphne calyculata a Sphagnum fuscum,261,80,46.409,21,97,666,-19.7,13.4167,94,10.3167,21.2715,1357.12,21,-27.5,48.5,8.48333,-2.01667,223,-12.85,400,35,225,0,16,7,23
2666,429,Lac Kaskamikaw,Pessiere a lichens,Collines de la Grande Riviere,Basses-terres du lac Duncan,46,53.160565,-78.159892,1,Bog,Bog a mares,Bog structurE,HerbacE,Herbacaie,Herbacaie de Rhynchospora alba,261,80,46.409,21,97,666,-19.7,13.4167,94,10.3167,21.2715,1357.12,21,-27.5,48.5,8.48333,-2.01667,223,-12.85,400,35,125,10,10,5,15
2667,430,Lac Pamichikamaw sud,Pessiere a lichens,Collines de la Grande Riviere,Basses-terres du lac Duncan,107,53.120283,-78.241964,1,Fen,Fen,Fen uniforme,Lande arborEe,Pessiere,Pessiere de Picea mariana a Chamaedaphne calyculata et Sphagnum fuscum,256,76,46.6977,21,95,655,-19.5167,13.3167,94,10.0667,20.9722,1343.47,20.6,-27.4,48,12.4333,-1.975,221,-12.6333,25,4,125,0,37,5,42
2668,430,Lac Pamichikamaw sud,Pessiere a lichens,Collines de la Grande Riviere,Basses-terres du lac Duncan,107,53.120283,-78.241964,1,Fen,Fen a mares,Fen structurE,HerbacE,Caricaie,Caricaie de Carex exilis a Sphagnum pulchrum,256,76,46.6977,21,95,655,-19.5167,13.3167,94,10.0667,20.9722,1343.47,20.6,-27.4,48,12.4333,-1.975,221,-12.6333,25,4,100,40,29,11,40
2669,431,Lac Pamichikamaw nord,Pessiere a lichens,Collines de la Grande Riviere,Basses-terres du lac Duncan,107,53.137754,-78.264643,1,Fen,Fen a mares,Fen structurE,HerbacE,Caricaie,Caricaie de Carex exilis a Trichophorum cespitosum,258,78,46.6412,21,96,658,-19.55,13.45,93,10.0833,20.9198,1350.42,20.8,-27.4,48.2,8.5,-1.94167,221,-12.6667,175,10,205,0,19,5,24
2671,433,Lac Wastawawmakw,Pessiere a lichens,Collines de la Grande Riviere,Basses-terres du lac Duncan,46,53.71666667,-78.71666667,1,Bog,Bog,Bog uniforme,Arborescent,Pessiere,Pessiere de Picea mariana a Chamaedaphne calyculata et Sphagnum fuscum,232,69,46.3318,21,82,598,-19.9667,12.4667,90,9.86667,20.5556,1337.29,19.7,-28.3,48,11.9333,-2.56667,204,-13.3667,32,9,60,0,16,11,27
2672,433,Lac Wastawawmakw,Pessiere a lichens,Collines de la Grande Riviere,Basses-terres du lac Duncan,46,53.71666667,-78.71666667,1,Fen,Fen a mares,Fen structurE,HerbacE,Caricaie,Caricaie de Carex limosa,232,69,46.3318,21,82,598,-19.9667,12.4667,90,9.86667,20.5556,1337.29,19.7,-28.3,48,11.9333,-2.56667,204,-13.3667,32,9,75,60,17,7,24
2674,434,Lac Yasinki,Pessiere a lichens,Collines de la Grande Riviere,Basses-terres du lac Duncan,168,53.260054,-77.582507,1,Fen,Fen a mares,Fen structurE,Arbustif haut,Arbustaie,Arbustaie de Myrica gale a Sphagnum,279,86,46.8182,23,107,697,-19.45,13.6833,98,9.86667,20.7283,1354.06,20.8,-26.8,47.6,8.4,-1.875,234,-12.6833,390,50,120,2,31,6,37
2675,434,Lac Yasinki,Pessiere a lichens,Collines de la Grande Riviere,Basses-terres du lac Duncan,168,53.260054,-77.582507,1,Bog,Bog,Bog uniforme,Arbustif,Ericacaie,Ericacaie de Chamaedaphne calyculata a Cladina et Sphagnum fuscum,279,86,46.8182,23,107,697,-19.45,13.6833,98,9.86667,20.7283,1354.06,20.8,-26.8,47.6,8.4,-1.875,234,-12.6833,390,50,200,0,16,5,21
2676,434,Lac Yasinki,Pessiere a lichens,Collines de la Grande Riviere,Basses-terres du lac Duncan,168,53.260054,-77.582507,1,Bog,Bog a mares,Bog structurE,Arbustif,Ericacaie,Ericacaie de Chamaedaphne calyculata a Sphagnum fuscum,279,86,46.8182,23,107,697,-19.45,13.6833,98,9.86667,20.7283,1354.06,20.8,-26.8,47.6,8.4,-1.875,234,-12.6833,390,50,150,0,14,6,20
2677,434,Lac Yasinki,Pessiere a lichens,Collines de la Grande Riviere,Basses-terres du lac Duncan,168,53.260054,-77.582507,1,Bog,Bog,Bog uniforme,Lande arborEe,Ericacaie,Ericacaie de Chamaedaphne calyculata a Picea mariana et Sphagnum fuscum,279,86,46.8182,23,107,697,-19.45,13.6833,98,9.86667,20.7283,1354.06,20.8,-26.8,47.6,8.4,-1.875,234,-12.6833,390,50,160,0,11,6,17
2679,436,Lac Mamikustataw est,Pessiere a lichens,Collines de la Grande Riviere,Basses-terres du lac Duncan,107,53.795178,-78.212,1,Fen,Fen a mares,Fen structurE,HerbacE,Caricaie,Caricaie de Carex exilis a Sphagnum fuscum,254,74,47.9149,22,96,638,-20.2,13.2333,93,10.1333,20.7226,1372.73,20.8,-28.1,48.9,8.13333,-2.45833,217,-13.5833,64,2,90,0,26,11,37
2680,436,Lac Mamikustataw est,Pessiere a lichens,Collines de la Grande Riviere,Basses-terres du lac Duncan,107,53.795178,-78.212,1,Fen,Fen,Fen uniforme,Arborescent,Pessiere,Pessiere de Picea mariana a Chamaedaphne calyculata et Sphagnum fuscum,254,74,47.9149,22,96,638,-20.2,13.2333,93,10.1333,20.7226,1372.73,20.8,-28.1,48.9,8.13333,-2.45833,217,-13.5833,64,2,65,0,17,11,28
2681,437,Lac Anisupiskwakunikasich,Pessiere a lichens,Collines de la Grande Riviere,Basses-terres du lac Duncan,107,53.46666667,-78.46666667,1,Fen,Fen a mares,Fen structurE,HerbacE,Herbacaie,Herbacaie de Trichophorum a Scorpidium scorpioides,247,72,47.3498,21,90,629,-20,13.1333,92,10.3167,21.0544,1361.23,20.8,-28.2,49,12.3833,-2.29167,215,-13.2167,480,8,265,50,19,10,29
2682,437,Lac Anisupiskwakunikasich,Pessiere a lichens,Collines de la Grande Riviere,Basses-terres du lac Duncan,107,53.46666667,-78.46666667,1,Fen,Fen,Fen uniforme,Lande arborEe,Pessiere,Pessiere de Picea mariana a Chamaedaphne calyculata et Sphagnum fuscum,247,72,47.3498,21,90,629,-20,13.1333,92,10.3167,21.0544,1361.23,20.8,-28.2,49,12.3833,-2.29167,215,-13.2167,480,8,85,0,15,5,20
2685,439,Sakami I,Pessiere a lichens,Collines de la Grande Riviere,DEpression de la Grande Riviere,198,53.718841,-76.018676,1,Fen,Fen,Fen uniforme,Arbustif haut,Aulnaie,Aulnaie a Rhododendron groenlandicum et Sphagnum girgensohnii,288,83,46.9094,27,107,716,-18.3833,12.1833,110,8.86667,20.1974,1253.9,18.4,-25.5,43.9,11.3833,-2.05,252,-12.0333,4,0.1,68,1,16,9,25
2686,440,Lac Shpogan,Pessiere a lichens,Collines de la Grande Riviere,Bas plateau du lac Sakami,228,53.142787,-77.067178,1,Fen,Fen a mares,Fen structurE,HerbacE,Caricaie,Caricaie de Carex limosa a Sphagnum lindbergii,289,89,46.1043,25,109,730,-19.2833,13.6333,106,10.0583,21.1754,1345.09,20.8,-26.7,47.5,8.23333,-1.85417,252,-12.5167,148,1.4,130,30,12,5,17
2690,442,Lac Kawapakamich,Pessiere a lichens,Collines de la Grande Riviere,Bas plateau du lac Sakami,228,53.477759,-76.497835,1,Fen,Fen,Fen uniforme,Lande arborEe,Pessiere,Pessiere de Picea mariana a Chamaedaphne calyculata et Sphagnum,291,87,47.0363,27,112,728,-18.9167,13.3,109,9.20833,20.0617,1314.13,19.8,-26.1,45.9,12.2167,-1.90417,251,-12.3333,40,3,115,0,12,11,23
2691,442,Lac Kawapakamich,Pessiere a lichens,Collines de la Grande Riviere,Bas plateau du lac Sakami,228,53.477759,-76.497835,1,Bog,Bog,Bog uniforme,Arbustif,Ericacaie,Ericacaie de Chamaedaphne calyculata a Sphagnum,291,87,47.0363,27,112,728,-18.9167,13.3,109,9.20833,20.0617,1314.13,19.8,-26.1,45.9,12.2167,-1.90417,251,-12.3333,40,3,160,0,17,7,24
2692,442,Lac Kawapakamich,Pessiere a lichens,Collines de la Grande Riviere,Bas plateau du lac Sakami,228,53.48333333,-76.5,1,Fen,Fen,Fen uniforme,Lande arborEe,Pessiere,Pessiere de Picea mariana a Chamaedaphne calyculata et Sphagnum,291,87,47.0363,27,112,728,-18.9167,13.3,109,9.20833,20.0617,1314.13,19.8,-26.1,45.9,12.2167,-1.90417,251,-12.3333,40,3,131,0,10,6,16
2699,445,Lac Bonfait,Pessiere a lichens,Collines de la Grande Riviere,Bas plateau du lac Sakami,228,53.5,-76.4,1,Fen,Fen,Fen uniforme,HerbacE,Caricaie,Caricaie de Carex magellanica a Sphagnum riparium,292,85,47.4423,27,112,725,-19,13.1,109,9.35833,20.3885,1307.91,19.7,-26.2,45.9,12,-2.0125,253,-12.3,90,3,80,2,15,11,26
2705,449,Baie Uchiskuputisakaw,Pessiere a lichens,Collines de la Grande Riviere,Bas plateau du lac Sakami,228,53.3,-76.83333333,1,Bog,Bog,Bog uniforme,Arbustif,Ericacaie,Ericacaie de Chamaedaphne calyculata a Cladina,288,87,46.4554,26,109,722,-18.7667,13.1167,107,8.85,19.4506,1303.63,19.6,-25.9,45.5,8.55,-1.81667,248,-12.25,410,40,160,0,7,4,11
2706,449,Baie Uchiskuputisakaw,Pessiere a lichens,Collines de la Grande Riviere,Bas plateau du lac Sakami,228,53.3,-76.83333333,1,Bog,Bog,Bog uniforme,Lande arborEe,Pessiere,Pessiere de Picea mariana a Chamaedaphne calyculata et Cladina,288,87,46.4554,26,109,722,-18.7667,13.1167,107,8.85,19.4506,1303.63,19.6,-25.9,45.5,8.55,-1.81667,248,-12.25,410,40,145,0,11,6,17
2707,449,Baie Uchiskuputisakaw,Pessiere a lichens,Collines de la Grande Riviere,Bas plateau du lac Sakami,228,53.3,-76.83333333,1,Bog,Bog,Bog uniforme,Arborescent,Pessiere,Pessiere de Picea mariana a Rhododendron groenlandicum et Pleurozium schreberi,288,87,46.4554,26,109,722,-18.7667,13.1167,107,8.85,19.4506,1303.63,19.6,-25.9,45.5,8.55,-1.81667,248,-12.25,410,40,105,0,8,5,13
2710,451,Route Trans-Taiga,Pessiere a lichens,Collines de la Grande Riviere,Bas plateau du lac Sakami,228,53.575814,-76.136014,1,Fen,Fen,Fen uniforme,Muscinal,Muscinaie,Muscinaie de Sphagnum riparium,293,84,47.0884,27,111,729,-19,12.8833,112,9.43333,20.5072,1300.8,19.7,-26.3,46,11.7833,-2.11667,254,-12.3167,120,52,105,5,5,2,7
2711,451,Route Trans-Taiga,Pessiere a lichens,Collines de la Grande Riviere,Bas plateau du lac Sakami,228,53.575814,-76.136014,1,Fen,Fen a mares,Fen structurE,HerbacE,Caricaie,Caricaie de Carex exilis a Trichophorum cespitosum et Sphagnum fuscum,293,84,47.0884,27,111,729,-19,12.8833,112,9.43333,20.5072,1300.8,19.7,-26.3,46,11.7833,-2.11667,254,-12.3167,120,52,135,0,26,10,36
2725,459,Lac Wachiskw,Pessiere a lichens,Plateau central du Nord-du-QuEbec,Plateau de la riviere Naocacane,441,53.638934,-73.157204,1,Bog,Bog,Bog uniforme,Arborescent,Pessiere,"Pessiere de Picea mariana a Chamaedaphne calyculata, Rhododendron groenlandicum et Sphagnum",309,105,41.3884,32,108,780,-20.5167,12.6,130,9.675,20.3256,1346.36,19.3,-28.3,47.6,11.2,-3.25417,287,-13.8167,12,4,40,0,17,10,27
2726,459,Lac Wachiskw,Pessiere a lichens,Plateau central du Nord-du-QuEbec,Plateau de la riviere Naocacane,441,53.638934,-73.157204,1,Bog,Bog,Bog uniforme,Lande arborEe,Pessiere,"Pessiere de Picea mariana a Chamaedaphne calyculata, Rhododendron groenlandicum et Sphagnum",309,105,41.3884,32,108,780,-20.5167,12.6,130,9.675,20.3256,1346.36,19.3,-28.3,47.6,11.2,-3.25417,287,-13.8167,12,4,77,0,18,9,27
2727,459,Lac Wachiskw,Pessiere a lichens,Plateau central du Nord-du-QuEbec,Plateau de la riviere Naocacane,441,53.638934,-73.157204,1,Bog,Bog a mares,Bog structurE,HerbacE,Caricaie,Caricaie de Carex oligosperma a Sphagnum majus,309,105,41.3884,32,108,780,-20.5167,12.6,130,9.675,20.3256,1346.36,19.3,-28.3,47.6,11.2,-3.25417,287,-13.8167,12,4,90,0,10,1,11
2750,472,Lac Chaumont,Pessiere a lichens,Plateau central du Nord-du-QuEbec,DEpression du rEservoir Caniapiscau,594,53.925573,-69.76553,1,Bog,Bog,Bog uniforme,Arborescent,Saulaie,Saulaie de Salix bebbiana a Sphagnum girgensohnii,316,117,41.4111,33,112,787,-21.8333,10.9167,119,9.89167,20.8246,1330.43,17.7,-29.8,47.5,10.15,-4.6875,295,-20.7667,31,28,87,5,30,9,39
2776,486,Lac Artau,Pessiere a mousses,Hautes-terres de Mistassini,Plateau de la haute Rupert,366,50.71666667,-74.25,1,Fen,Fen,Fen uniforme,HerbacE,Caricaie,Caricaie de Carex limosa a Betula michauxii et Sphagnum pulchrum,335,158,28.508,44,116,979,-17.9333,14.1167,222,11.2417,23.5674,1298.61,21.7,-26,47.7,12.8333,-0.9625,325,-10.5,1200,60,200,35,13,4,17
2777,487,Lac Mesgouez,Pessiere a mousses,Hautes-terres de Mistassini,Plateau de la haute Rupert,320,51.43333333,-75.03333333,1,Bog,Bog,Bog uniforme,Lande arborEe,Pessiere,Pessiere de Picea mariana a Chamaedaphne calyculata et Sphagnum fuscum,322,124,34.9969,38,109,881,-17.9,14.2667,167,10.1583,21.6135,1301.45,21.3,-25.7,47,13.0667,-0.904167,305,-10.5833,212,22,150,0,14,4,18
2798,501,Confluent Pachistiwakanusich,Pessiere a lichens,Collines de la Grande Riviere,Bas plateau du lac Sakami,259,52.744789,-75.967696,1,Fen,Fen,Fen uniforme,Arbustif,Ericacaie,Ericacaie de Andromeda polifolia var. latifolia a Betula pumila et Sphagnum,304,99,42.4066,31,110,783,-18.7,13.7833,125,10.1333,21.6063,1323.45,20.8,-26.1,46.9,12.45,-1.5,272,-11.7833,2.6,0,40,5,25,5,30
2799,501,Confluent Pachistiwakanusich,Pessiere a lichens,Collines de la Grande Riviere,Bas plateau du lac Sakami,259,52.744789,-75.967696,1,Bog,Bog,Bog uniforme,Lande boisEe,Pessiere,Pessiere de Picea mariana a Chamaedaphne calyculata et Sphagnum fuscum,304,99,42.4066,31,110,783,-18.7,13.7833,125,10.1333,21.6063,1323.45,20.8,-26.1,46.9,12.45,-1.5,272,-11.7833,76,0,155,0,11,6,17
2800,501,Confluent Pachistiwakanusich,Pessiere a lichens,Collines de la Grande Riviere,Bas plateau du lac Sakami,259,52.744789,-75.967696,1,Bog,Bog a mares,Bog structurE,Arbustif,Ericacaie,Ericacaie de Chamaedaphne calyculata et Andromeda var. polifolia a Sphagnum,304,99,42.4066,31,110,783,-18.7,13.7833,125,10.1333,21.6063,1323.45,20.8,-26.1,46.9,12.45,-1.5,272,-11.7833,76,0,220,15,17,4,21
2809,510,Riviere Barou,Pessiere a lichens,Plateau central du Nord-du-QuEbec,Plateau de la riviere Naocacane,441,52.08333333,-72.68333333,1,Bog,Bog,Bog uniforme,Arbustif,Ericacaie,Ericacaie de Chamaedaphne calyculata a Carex oligosperma et Sphagnum,332,136,34.5134,44,115,894,-19.3167,13.7667,169,11.175,22.8996,1343.57,21.2,-27.6,48.8,12.2667,-1.97917,320,-12.2333,9.5,0.1,180,2,17,7,24
2810,511,Lac Baudeau II,Pessiere a mousses,Collines de la Grande Riviere,Buttons de l'Opinaca,411,51.851976,-73.220912,1,Bog,Bog a mares,Bog structurE,Lande arborEe,Pessiere,Pessiere de Picea mariana a Andromeda polifolia var. latifolia et Sphagnum fuscum,326,136,33.0053,41,114,902,-18.9667,13.5333,182,10.8667,22.6862,1318.99,20.8,-27.1,47.9,12.2,-1.81667,316,-11.7,18,0.5,175,10,15,3,18
2811,511,Lac Baudeau II,Pessiere a mousses,Collines de la Grande Riviere,Buttons de l'Opinaca,411,51.851976,-73.220912,1,Fen,Fen a mares,Fen structurE,HerbacE,Caricaie,Caricaie de Carex limosa a Sphagnum pulchrum,326,136,33.0053,41,114,902,-18.9667,13.5333,182,10.8667,22.6862,1318.99,20.8,-27.1,47.9,12.2,-1.81667,316,-11.7,18,0.5,280,60,14,3,17
2812,512,Lac Baudeau,Pessiere a mousses,Collines de la Grande Riviere,Buttons de l'Opinaca,411,51.870048,-73.140382,1,Fen,Fen a mares,Fen structurE,HerbacE,Herbacaie,Herbacaie de Scheuzeria palustris a Sphagnum pulchrum,326,139,32.5578,43,114,905,-19.0167,13.7333,181,11.05,22.8778,1328.98,21.1,-27.2,48.3,12.3333,-1.76667,318,-11.75,208,10,140,30,10,4,14
2813,512,Lac Baudeau,Pessiere a mousses,Collines de la Grande Riviere,Buttons de l'Opinaca,411,51.870048,-73.140382,1,Bog,Bog a mares,Bog structurE,Lande arborEe,Pessiere,Pessiere de Picea mariana a Carex oligosperma et Sphagnum,326,139,32.5578,43,114,905,-19.0167,13.7333,181,11.05,22.8778,1328.98,21.1,-27.2,48.3,12.3333,-1.76667,318,-11.75,208,10,125,30,16,6,22
2835,522,Lac Clairambault,Pessiere a lichens,Plateau central du Nord-du-QuEbec,DEpression du rEservoir Caniapiscau,503,54.501554,-69.174709,1,Bog,Bog,Bog uniforme,Lande arborEe,MElEzin,MElEzin a Carex limosa et Sphagnum russowii,301,120,38.6023,33,108,763,-21.9833,10.1333,120,9.40833,20.233,1311.4,16.9,-29.6,46.5,9.91667,-5.09583,278,-20.8833,1.6,1,60,10,23,9,32
2851,533,Riviere Perdue,Pessiere a mousses,Hautes-terres de Mistassini,Lac Mistassini,411,51.252147,-72.51358,1,Bog,Bog,Bog uniforme,Lande arborEe,MElEzin,MElEzin a Myrica gale et Sphagnum russowii,338,143,32.307,45,118,938,-18.75,13.9167,188,11.3833,23.2788,1322.11,21.5,-27.4,48.9,12.6,-1.50833,329,-11.2333,200,12,43,1,34,8,42
2855,537,Lac Kamisikamach est,Pessiere a lichens,Collines de la Grande Riviere,Bas plateau du lac Sakami,259,52.756144,-77.031449,1,Bog,Bog,Bog uniforme,Arborescent,Pessiere,Pessiere de Picea mariana a Rhododendron groenlandicum et Sphagnum fuscum,292,90,45.0803,26,110,748,-19.0167,13.85,112,9.875,20.966,1338.96,20.8,-26.3,47.1,12.5,-1.6625,256,-12.1667,2,0,64,0,11,7,18
2857,539,Lac 41,Pessiere a mousses,Basses-terres de la baie James,Plaine de Waskaganish,46,52.200398,-78.34373,1,Fen,Fen,Fen uniforme,Lande arborEe,Pessiere,Pessiere de Picea mariana a Chamaedaphne calyculata et Sphagnum,268,74,48.0724,19,95,683,-18.0833,13.9333,95,9.825,21.129,1309.73,21,-25.5,46.5,9.38333,-0.8875,232,-11.15,80,15,50,0,13,6,19
2883,554,Pointe de la consolation,Pessiere a mousses,Basses-terres de la baie James,Plaine de la basse Harricana,15,51.630307,-79.276892,1,Fen,Fen a mares,Fen structurE,HerbacE,Caricaie,Caricaie de Carex limosa a Scorpidium scorpioides et Menyanthes trifoliata,264,82,44.5614,20,93,688,-16.6,13.9333,94,8.75,20.0688,1254.6,20.5,-23.1,43.6,13.4333,-0.283333,241,-15.7667,30,10,130,35,16,2,18
2885,556,Est Riviere Chenukamisu,Pessiere a mousses,Basses-terres de la baie James,Plaine de Waskaganish,228,51.8,-76.5,1,Bog,Bog,Bog uniforme,Arbustif,Ericacaie,Ericacaie de Chamaedaphne calyculata a Sphagnum,307,102,41.0548,30,108,807,-18.1667,14.5,127,10.6667,22.3152,1329.12,22.1,-25.7,47.8,13.2167,-0.808333,283,-10.8833,500,15,300,0,10,3,13
2886,556,Est Riviere Chenukamisu,Pessiere a mousses,Basses-terres de la baie James,Plaine de Waskaganish,228,51.8,-76.5,1,Bog,Bog,Bog uniforme,Lande arborEe,Pessiere,Pessiere de Picea mariana a Sphagnum fuscum,307,102,41.0548,30,108,807,-18.1667,14.5,127,10.6667,22.3152,1329.12,22.1,-25.7,47.8,13.2167,-0.808333,283,-10.8833,500,15,300,0,15,4,19
2887,556,Est Riviere Chenukamisu,Pessiere a mousses,Basses-terres de la baie James,Plaine de Waskaganish,228,51.8,-76.5,1,Bog,Bog,Bog uniforme,Arbustif,Ericacaie,Ericacaie de Chamaedaphne calyculata a Sphagnum recurvum,307,102,41.0548,30,108,807,-18.1667,14.5,127,10.6667,22.3152,1329.12,22.1,-25.7,47.8,13.2167,-0.808333,283,-10.8833,500,15,95,0,10,3,13
2911,568,Lac Montreuil,Pessiere a mousses,Basses-terres de l'Abitibi,DEpression de Matagami,228,50.18333333,-77.7,1,Fen,Fen,Fen uniforme,Arbustif,Arbustaie,Arbustaie de Myrica gale,320,126,36.459,31,111,875,-16.7833,14.8667,139,11.0167,23.3899,1285.8,22.5,-24.6,47.1,13.7167,-0.0583334,312,-9.61667,675,40,130,0,19,2,21
2912,568,Lac Montreuil,Pessiere a mousses,Basses-terres de l'Abitibi,DEpression de Matagami,228,50.18333333,-77.7,1,Fen,Fen,Fen uniforme,Arbustif,Arbustaie,Arbustaie de Myrica gale a Sphagnum,320,126,36.459,31,111,875,-16.7833,14.8667,139,11.0167,23.3899,1285.8,22.5,-24.6,47.1,13.7167,-0.0583334,312,-9.61667,675,40,170,0,30,5,35
2913,568,Lac Montreuil,Pessiere a mousses,Basses-terres de l'Abitibi,DEpression de Matagami,228,50.18333333,-77.7,1,Fen,Fen a mares,Fen structurE,HerbacE,Caricaie,Caricaie de Carex exilis a Trichophorum cespitosum et Sphagnum,320,126,36.459,31,111,875,-16.7833,14.8667,139,11.0167,23.3899,1285.8,22.5,-24.6,47.1,13.7167,-0.0583334,312,-9.61667,675,40,220,3,35,7,42
2914,569,Lac Gabrielle,Pessiere a mousses,Basses-terres de l'Abitibi,DEpression de Matagami,259,49.78333333,-77.35,1,Fen,Fen a mares,Fen structurE,HerbacE,Caricaie,Caricaie de Carex exilis a Sphagnum magellanicum,330,126,37.618,31,113,898,-16.55,14.8833,140,11.425,24.1543,1277.99,22.6,-24.7,47.3,13.7667,0.1375,321,-9.2,110,50,230,2,27,3,30
2915,569,Lac Gabrielle,Pessiere a mousses,Basses-terres de l'Abitibi,DEpression de Matagami,259,49.78333333,-77.35,1,Fen,Fen,Fen uniforme,HerbacE,Caricaie,Caricaie de Carex exilis a Sphagnum,330,126,37.618,31,113,898,-16.55,14.8833,140,11.425,24.1543,1277.99,22.6,-24.7,47.3,13.7667,0.1375,321,-9.2,110,50,190,0,28,8,36
2916,569,Lac Gabrielle,Pessiere a mousses,Basses-terres de l'Abitibi,DEpression de Matagami,259,49.78333333,-77.35,1,Bog,Bog,Bog uniforme,HerbacE,Caricaie,Caricaie de Carex oligosperma a Sphagnum recurvum,330,126,37.618,31,113,898,-16.55,14.8833,140,11.425,24.1543,1277.99,22.6,-24.7,47.3,13.7667,0.1375,321,-9.2,110,50,270,0,9,3,12
2919,571,Sud Lac Bouchier,Pessiere a mousses,Basses-terres de l'Abitibi,DEpression de Matagami,259,50.01666667,-77.81666667,1,Fen,Bog a mares,Bog structurE,Arbustif,Ericacaie,Ericacaie de Andromeda polifolia var. latifolia a Sphagnum,325,132,35.6023,32,112,892,-16.85,15.1167,143,11.5833,24.0818,1301.15,23.1,-25,48.1,13.95,0.05,316,-9.61667,3900,375,235,15,17,8,25
2920,571,Sud Lac Bouchier,Pessiere a mousses,Basses-terres de l'Abitibi,DEpression de Matagami,259,50.01666667,-77.81666667,1,Bog,Bog,Bog uniforme,HerbacE,Caricaie,Caricaie de Carex oligosperma a Sphagnum rubellum,325,132,35.6023,32,112,892,-16.85,15.1167,143,11.5833,24.0818,1301.15,23.1,-25,48.1,13.95,0.05,316,-9.61667,3900,375,300,0,12,7,19
2921,571,Sud Lac Bouchier,Pessiere a mousses,Basses-terres de l'Abitibi,DEpression de Matagami,259,50.01666667,-77.81666667,1,Bog,Bog a mares,Bog structurE,Arbustif,Ericacaie,Ericacaie de Chamaedaphne calyculata a Sphagnum rubellum,325,132,35.6023,32,112,892,-16.85,15.1167,143,11.5833,24.0818,1301.15,23.1,-25,48.1,13.95,0.05,316,-9.61667,3900,375,220,20,22,8,30
2922,572,Lac Maicasagi,Pessiere a mousses,Basses-terres de l'Abitibi,DEpression de Matagami,320,50.002565,-76.831174,1,Fen,Fen a mares,Fen structurE,HerbacE,Herbacaie,Herbacaie de Rhynchospora alba a Sphagnum papillosum,332,118,39.4801,30,113,887,-16.9333,14.5167,136,11.3917,24.0839,1278.58,22.4,-24.9,47.3,13.4,-0.1875,318,-9.51667,1900,20,300,30,25,5,30
2923,572,Lac Maicasagi,Pessiere a mousses,Basses-terres de l'Abitibi,DEpression de Matagami,320,50.002565,-76.831174,1,Fen,Fen,Fen uniforme,Lande arborEe,MElEzin,MElEzin a Menyanthes trifoliata et Sphagnum recurvum,332,118,39.4801,30,113,887,-16.9333,14.5167,136,11.3917,24.0839,1278.58,22.4,-24.9,47.3,13.4,-0.1875,318,-9.51667,1900,20,215,0,19,13,32
2924,572,Lac Maicasagi,Pessiere a mousses,Basses-terres de l'Abitibi,DEpression de Matagami,320,50.002565,-76.831174,1,Fen,Fen,Fen uniforme,HerbacE,Caricaie,Caricaie de Carex exilis a Sphagnum papillosum,332,118,39.4801,30,113,887,-16.9333,14.5167,136,11.3917,24.0839,1278.58,22.4,-24.9,47.3,13.4,-0.1875,318,-9.51667,1900,20,300,1,22,4,26
2925,573,Lac de la tourbiere-BJ,Pessiere a mousses,Basses-terres de l'Abitibi,DEpression de Matagami,289,50.137829,-77.15087,1,Fen,Fen a mares,Fen structurE,HerbacE,Herbacaie,Herbacaie de Trichophorum cespitosum a Carex exilis et Sphagnum,328,122,38.2963,30,112,885,-16.8667,14.4667,136,11.075,23.6645,1272.76,22,-24.8,46.8,13.3667,-0.195833,317,-9.5,1020,15,300,25,34,14,48
2926,574,Lac Soscuminga est II,Pessiere a mousses,Basses-terres de l'Abitibi,DEpression de Matagami,289,50.26666667,-77.31666667,1,Fen,Fen a mares,Fen structurE,HerbacE,Herbacaie,Herbacaie de Trichophorum cespitosum a Carex exilis,324,120,38.1864,30,112,872,-16.95,14.5167,136,10.9583,23.3653,1278.01,22.1,-24.8,46.9,13.4167,-0.245833,312,-9.65,1000,45,215,20,43,6,49
2927,574,Lac Soscuminga est II,Pessiere a mousses,Basses-terres de l'Abitibi,DEpression de Matagami,289,50.26666667,-77.31666667,1,Fen,Fen,Fen uniforme,Lande arborEe,MElEzin,MElEzin a Trichophorum cespitosum et Sphagnum,324,120,38.1864,30,112,872,-16.95,14.5167,136,10.9583,23.3653,1278.01,22.1,-24.8,46.9,13.4167,-0.245833,312,-9.65,1000,45,220,0,36,9,45
2928,575,Lac Soscuminga nord,Pessiere a mousses,Basses-terres de l'Abitibi,DEpression de Matagami,259,50.321037,-77.392413,1,Fen,Fen,Fen uniforme,HerbacE,Caricaie,Caricaie de Carex exilis a Trichophorum cespitosum et Sphagnum,319,123,37.0595,31,110,869,-16.9,14.5667,137,10.5,22.5806,1277.22,21.9,-24.6,46.5,13.5,-0.258333,309,-9.78333,290,10,300,0,41,7,48
2929,576,Riviere Chensagi,Pessiere a mousses,Basses-terres de l'Abitibi,DEpression de Matagami,259,50.166142,-76.535691,1,Bog,Bog,Bog uniforme,HerbacE,Caricaie,Caricaie de Carex oligosperma a Sphagnum,336,119,39.7202,31,115,888,-17.0667,14.55,136,11.35,23.9958,1285.35,22.3,-25,47.3,13.4,-0.225,317,-9.61667,78,35,260,0,8,4,12
2931,578,Lac Soscuminga est,Pessiere a mousses,Basses-terres de l'Abitibi,DEpression de Matagami,289,50.257709,-77.394363,1,Bog,Bog,Bog uniforme,Arbustif,Ericacaie,Ericacaie de Chamaedaphne calyculata a Sphagnum fuscum,320,122,37.4637,30,110,868,-16.8333,14.4,136,10.7083,23.0783,1268.52,21.8,-24.6,46.4,13.3667,-0.2625,308,-9.65,1000,5,300,0,11,5,16
2970,555,Lac Dana,Pessiere a mousses,Basses-terres de l'Abitibi,DEpression de Matagami,259,50.892491,-77.278071,1,Bog,Bog,Bog uniforme,Arbustif,Ericacaie,Ericacaie de Chamaedaphne calyculata a Eriophorum vaginicum subsp. spissum et Sphagnum,316,114,39.1079,29,108,844,-17.2333,14.1667,129,10.225,22.2283,1275.76,21.4,-24.6,46,13.0833,-0.604167,296,-10.2,340,5,220,1,15,6,21
2971,555,Lac Dana,Pessiere a mousses,Basses-terres de l'Abitibi,DEpression de Matagami,259,50.892491,-77.278071,1,Fen,Fen,Fen uniforme,Arbustif,Ericacaie,Ericacaie de Chamaedaphne calyculata a Sphagnum,316,114,39.1079,29,108,844,-17.2333,14.1667,129,10.225,22.2283,1275.76,21.4,-24.6,46,13.0833,-0.604167,296,-10.2,340,5,170,2,11,8,19
2989,605,Nord Lac Bouchier,Pessiere a mousses,Basses-terres de l'Abitibi,DEpression de Matagami,289,50.16666667,-77.85,1,Fen,Fen,Fen uniforme,HerbacE,Caricaie,Caricaie de Carex oligosperma et Carex limosa a Sphagnum,321,133,35.3315,32,112,886,-16.8167,14.9333,141,11.0917,23.4993,1290.72,22.6,-24.6,47.2,13.7833,-0.0458334,309,-9.66667,40,1,110,0,8,4,12
2990,605,Nord Lac Bouchier,Pessiere a mousses,Basses-terres de l'Abitibi,DEpression de Matagami,289,50.16666667,-77.85,1,Bog,Bog a mares,Bog structurE,Muscinal,Muscinaie,Muscinaie de Sphagnum capillifolium,321,133,35.3315,32,112,886,-16.8167,14.9333,141,11.0917,23.4993,1290.72,22.6,-24.6,47.2,13.7833,-0.0458334,309,-9.66667,40,1,300,0,17,4,21
2991,606,Riviere Bell,Pessiere a mousses,Basses-terres de l'Abitibi,DEpression de Matagami,289,49.549696,-77.497447,1,Bog,Bog,Bog uniforme,Arborescent,Pessiere,Pessiere de Picea mariana a Sphagnum nemoreum,332,132,36.6767,32,113,909,-16.4333,14.85,142,11.9833,25.0697,1272.08,22.9,-24.9,47.8,13.7667,0.216667,322,-15.0667,75,10,210,0,10,5,15
2992,606,Riviere Bell,Pessiere a mousses,Basses-terres de l'Abitibi,DEpression de Matagami,289,49.549696,-77.497447,1,Fen,Fen,Fen uniforme,HerbacE,Caricaie,Caricaie de Carex oligosperma a Trichophorum cespitosum et Sphagnum,332,132,36.6767,32,113,909,-16.4333,14.85,142,11.9833,25.0697,1272.08,22.9,-24.9,47.8,13.7667,0.216667,322,-15.0667,75,10,300,1,26,7,33
2993,607,Lac Opataouaga est,Pessiere a mousses,Basses-terres de l'Abitibi,DEpression de Matagami,289,50.3937,-76.629455,1,Fen,Fen,Fen uniforme,HerbacE,Herbacaie,Herbacaie de Trichophorum cespitosum a Sphagnum,327,116,39.229,31,110,875,-17.2,14.4833,135,11.1083,23.5346,1287.66,22.2,-25,47.2,13.3,-0.379167,312,-9.88333,135,70,260,0,31,4,35
2994,607,Lac Opataouaga est,Pessiere a mousses,Basses-terres de l'Abitibi,DEpression de Matagami,289,50.3937,-76.629455,1,Fen,Fen a mares,Fen structurE,HerbacE,Herbacaie,Herbacaie de Trichophorum cespitosum a Sphagnum,327,116,39.229,31,110,875,-17.2,14.4833,135,11.1083,23.5346,1287.66,22.2,-25,47.2,13.3,-0.379167,312,-9.88333,135,70,270,10,31,5,36
2996,609,Chensagi Lake II,Pessiere a mousses,Basses-terres de l'Abitibi,DEpression de Matagami,289,50.092137,-76.735024,1,Fen,Fen a mares,Fen structurE,HerbacE,Herbacaie,Herbacaie de Trichophorum cespitosum a Campylium stellatum,329,118,39.2482,30,112,880,-16.8333,14.5333,135,10.8333,23.2475,1272.48,21.9,-24.7,46.6,13.4167,-0.208334,314,-9.58333,140,60,300,10,37,7,44
2997,610,Chensagi Lake I,Pessiere a mousses,Basses-terres de l'Abitibi,DEpression de Matagami,289,50.077677,-76.727417,1,Fen,Fen,Fen uniforme,HerbacE,Herbacaie,Herbacaie de Trichophorum a Scorpidium scorpioides,332,117,39.5749,30,112,886,-16.85,14.5333,135,10.9417,23.4297,1273.35,22,-24.7,46.7,13.4167,-0.195833,317,-9.55,75,2,250,2,33,7,40
2998,610,Chensagi Lake I,Pessiere a mousses,Basses-terres de l'Abitibi,DEpression de Matagami,289,50.077677,-76.727417,1,Fen,Fen,Fen uniforme,Arbustif haut,Aulnaie,Aulnaie a Salix pedicellaris et Sphagnum,332,117,39.5749,30,112,886,-16.85,14.5333,135,10.9417,23.4297,1273.35,22,-24.7,46.7,13.4167,-0.195833,317,-9.55,75,2,130,17,14,4,18
2999,611,Lac au GoEland,Pessiere a mousses,Basses-terres de l'Abitibi,DEpression de Matagami,289,49.76666667,-76.86666667,1,Fen,Fen a mares,Fen structurE,Lande arborEe,CEdriere,CEdriere a Trichophorum cespitosum et Sphagnum,330,118,39.4864,30,112,880,-16.2333,15.4333,134,10.6917,22.8454,1281.44,22.7,-24.1,46.8,14.3167,0.4375,316,-9.05,400,2,250,15,24,4,28
3000,611,Lac au GoEland,Pessiere a mousses,Basses-terres de l'Abitibi,DEpression de Matagami,289,49.76666667,-76.86666667,1,Bog,Bog,Bog uniforme,HerbacE,Caricaie,Caricaie de Carex oligosperma a Sphagnum,330,118,39.4864,30,112,880,-16.2333,15.4333,134,10.6917,22.8454,1281.44,22.7,-24.1,46.8,14.3167,0.4375,316,-9.05,400,2,200,0,11,4,15
3001,612,Lac Mistatikamkw nord,Pessiere a lichens,Collines de la Grande Riviere,Bas plateau du lac Julian,76,54.238846,-78.706052,1,Bog,Bog a mares,Bog structurE,Lande arborEe,Pessiere,Pessiere de Picea mariana a Chamaedaphne calyculata et Sphagnum,235,71,46.3744,22,83,595,-20.5833,13.1,90,9.6,19.6319,1386.78,20.3,-28.6,48.9,12.3,-2.78333,205,-14.2833,400,80,295,10,15,5,20
3002,612,Lac Mistatikamkw nord,Pessiere a lichens,Collines de la Grande Riviere,Bas plateau du lac Julian,76,54.238846,-78.706052,1,Fen,Fen,Fen uniforme,Arbustif,Arbustaie,Arbustaie de Myrica gale et Betula michauxii a Sphagnum pulchrum,235,71,46.3744,22,83,595,-20.5833,13.1,90,9.6,19.6319,1386.78,20.3,-28.6,48.9,12.3,-2.78333,205,-14.2833,400,80,225,2,17,2,19
3005,615,Lac Amiskw Kamamakatanikau,Pessiere a mousses,Basses-terres de l'Abitibi,Plaine de la Turgeon,259,50.945846,-77.560419,1,Bog,Bog,Bog uniforme,Arborescent,Pessiere,Pessiere de Picea mariana a Carex trisperma et Sphagnum recurvum,317,111,39.9498,28,108,846,-17.35,14.1833,128,10.1583,22.1314,1281.84,21.4,-24.5,45.9,13.0333,-0.704167,296,-10.4167,18,9,76,2,13,3,16
3011,619,Nord Chensagi Lake,Pessiere a mousses,Basses-terres de l'Abitibi,DEpression de Matagami,320,50.159909,-76.749484,1,Bog,Bog,Bog uniforme,Arborescent,Pessiere,Pessiere de Picea mariana a Rhododendron groenlandicum et Sphagnum,332,119,39.2728,31,114,884,-16.9667,14.5333,136,11.1833,23.7943,1280.47,22.2,-24.8,47,13.4167,-0.2,314,-9.58333,50,2,70,0,16,8,24
3037,641,Nord Riviere Muskiki,Pessiere a mousses,Basses-terres de l'Abitibi,DEpression de Matagami,289,50.465909,-77.270791,1,Fen,Fen,Fen uniforme,Arborescent,Pessiere,"Pessiere de Picea mariana a Rhododendron groenlandicum, Pleurozium schreberi et Sphagnum",325,118,38.651,30,111,877,-17.1833,14.1833,136,10.7167,23.0963,1275.39,21.6,-24.8,46.4,13.0833,-0.525,312,-9.91667,270,2,40,0,10,6,16
3064,649,Riviere Cobin sud,Pessiere a lichens,Collines de la Grande Riviere,Bas plateau du lac Julian,46,54.3869,-79.1051,1,Fen,Fen,Fen uniforme,HerbacE,Caricaie,Caricaie de Carex lasiocarpa a Sphagnum,228,60,49.1885,19,79,564,-20.4,12.1167,84,9.075,19.2675,1348.57,18.7,-28.4,47.1,11.6667,-3.0125,201,-14.35,43,0.1,80,0,10,6,16
3066,649,Riviere Cobin sud,Pessiere a lichens,Collines de la Grande Riviere,Bas plateau du lac Julian,46,54.3869,-79.1051,1,Fen,Fen,Fen uniforme,Lande arborEe,MElEzin,MElEzin a Carex lasiocarpa et Sphagnum,228,60,49.1885,19,79,564,-20.4,12.1167,84,9.075,19.2675,1348.57,18.7,-28.4,47.1,11.6667,-3.0125,201,-14.35,43,0.1,120,0,15,10,25
2637,406,Riviere au Castor,Pessiere a lichens,Collines de la Grande Riviere,Basses-terres du lac Duncan,46,53.38333333,-78.9,2,Fen,Fen,Fen uniforme,Arborescent,Pessiere,Pessiere de Picea mariana a Rhododendron groenlandicum et Sphagnum fuscum,230,68,46.8447,20,80,596,-19.5833,12.3333,88,9.81667,20.7541,1319.04,19.2,-28.1,47.3,12,-2.29167,205,-12.8833,2185,20,125,0,11,3,14
2638,406,Riviere au Castor,Pessiere a lichens,Collines de la Grande Riviere,Basses-terres du lac Duncan,46,53.38333333,-78.9,2,Fen,Fen,Fen uniforme,Lande arborEe,Saulaie,Saulaie de Salix pedicellaris a Tomenthypnum nitens,230,68,46.8447,20,80,596,-19.5833,12.3333,88,9.81667,20.7541,1319.04,19.2,-28.1,47.3,12,-2.29167,205,-12.8833,2185,20,75,0,8,2,10
2639,407,Lac Maggiolo II,Pessiere a lichens,Plateau central du Nord-du-QuEbec,DEpression du rEservoir Caniapiscau,594,53.3339,-68.7056,2,Fen,Fen,Fen uniforme,Arborescent,Pessiere,Pessiere de Picea mariana a Chamaedaphne calyculata et Sphagnum fuscum,340,138,37.22,38,122,881,-21.5667,11.15,142,10.4333,21.9188,1319.83,18.3,-29.3,47.6,9.93333,-4.575,318,-20.1667,4.7,1.5,43,0,17,6,23
2646,412,Lac Mamikustataw Nord,Pessiere a lichens,Collines de la Grande Riviere,Basses-terres du lac Duncan,107,53.845226,-78.311965,2,Bog,Bog a mares,Bog structurE,Lande arborEe,Pessiere,Pessiere de Picea mariana a Sphagnum,249,74,47.3699,22,92,631,-20.2667,13.15,92,10.05,20.5943,1374.04,20.6,-28.2,48.8,12.25,-2.5,216,-13.7,155,10,125,0,12,2,14
2647,413,Lac Lejeune W,Pessiere a lichens,Collines de la Grande Riviere,Buttons de l'Opinaca,366,53.034656,-75.002389,2,Bog,Bog,Bog uniforme,Arbustif,Ericacaie,Ericacaie de Chamaedaphne calyculata a Sphagnum fuscum,311,104,40.6854,32,107,803,-19.5667,13.2833,138,9.825,20.8599,1334.51,20.1,-27,47.1,11.8333,-2.39583,284,-12.8,13,1.5,56,0,18,6,24
2648,414,Baie Carbillet,Pessiere a lichens,Collines de la Grande Riviere,DEpression de la Grande Riviere,198,53.918189,-76.570232,2,Fen,Fen,Fen uniforme,Arbustif,Ericacaie,Ericacaie de Chamaedaphne calyculata a Sphagnum fuscum,284,73,50.1327,24,108,693,-19.1667,12.0333,104,8.53333,19.176,1282.97,18.3,-26.2,44.5,11.5667,-2.475,243,-12.9333,7.5,0.5,125,0,14,6,20
2651,417,Presqu'ile,Pessiere a lichens,Collines de la Grande Riviere,DEpression de la Grande Riviere,198,53.664292,-77.473737,2,Bog,Bog,Bog uniforme,HerbacE,Pessiere,Pessiere de Picea mariana a Chamaedaphne calyculata et Sphagnum,278,81,48.6994,23,108,684,-19.6,12.3833,96,9.075,19.8144,1312.84,19.1,-26.7,45.8,7.95,-2.54583,233,-13.2167,50,4,54,0,18,4,22
2652,418,Sud Lac de l'Hiver,Pessiere a lichens,Plateau central du Nord-du-QuEbec,Plateau de la riviere Naocacane,503,53.835146,-71.835561,2,Fen,Fen,Fen uniforme,Arborescent,Pessiere,Pessiere de Picea mariana a Chamaedaphne calyculata,306,100,44.3025,31,109,753,-21.2667,11.8833,115,9.68333,20.3431,1346.38,18.4,-29.2,47.6,10.7167,-3.93333,292,-14.4333,8,3,75,0,12,3,15
2654,420,Lac Kamisikamach,Pessiere a lichens,Collines de la Grande Riviere,Basses-terres du lac Duncan,107,53.433239,-78.374937,2,Fen,Fen,Fen uniforme,Lande arborEe,Pessiere,Pessiere de Picea mariana a Chamaedaphne calyculata et Cladina,250,72,47.4608,21,91,635,-19.9167,12.9833,93,10.2583,21.1077,1349.74,20.6,-28,48.6,12.1833,-2.35417,218,-13.1667,95,5,150,0,15,4,19
2655,421,Fort George,Pessiere a lichens,Collines de la Grande Riviere,Basses-terres du lac Duncan,46,53.819714,-79.00494,2,Fen,Fen,Fen uniforme,HerbacE,Herbacaie,Herbacaie de Trichophorum cespitosum a Sphagnum russowii,215,66,44.8676,20,78,564,-20.0167,11.7667,89,9.65,20.4449,1322.77,18.5,-28.7,47.2,11.5667,-2.76667,196,-13.6167,16,1,75,0,14,4,18
2656,421,Fort George,Pessiere a lichens,Collines de la Grande Riviere,Basses-terres du lac Duncan,46,53.819714,-79.00494,2,Bog,Bog,Bog uniforme,Lande arborEe,Pessiere,Pessiere de Picea mariana a Rhododendron groenlandicum et Sphagnum fuscum,215,66,44.8676,20,78,564,-20.0167,11.7667,89,9.65,20.4449,1322.77,18.5,-28.7,47.2,11.5667,-2.76667,196,-13.6167,16,1,60,0,13,2,15
2657,422,Baie Carbillet II,Pessiere a lichens,Collines de la Grande Riviere,DEpression de la Grande Riviere,198,53.927647,-76.501352,2,Fen,Fen,Fen uniforme,Lande arborEe,Ericacaie,Ericacaie de Chamaedaphne calyculata a Picea mariana et Sphagnum fuscum,284,75,49.901,25,108,693,-18.9333,12.2333,104,8.45,19.0315,1280.43,18.5,-25.9,44.4,11.6833,-2.29167,244,-12.7,5,0.1,65,0,10,2,12
2659,424,Dead Duck Bay,Pessiere a lichens,Collines de la Grande Riviere,Basses-terres du lac Duncan,46,53.58333333,-78.91666667,2,Fen,Fen a mares,Fen a mares,Arborescent,Pessiere,Pessiere de Picea mariana a Rhododendron groenlandicum et Sphagnum fuscum,225,68,45.8212,20,79,585,-19.8,12.25,88,9.59167,20.2784,1324.98,19,-28.3,47.3,11.9167,-2.5125,204,-13.2333,25,2.5,75,0,17,4,21
2660,425,Chenal Achipwasich,Pessiere a lichens,Collines de la Grande Riviere,Bas plateau du lac Sakami,228,53.052548,-76.922015,2,Fen,Fen,Fen uniforme,Arbustif,Ericacaie,Ericacaie de Rhododendron groenlandicum et Chamaedaphne calyculata a Sphagnum fuscum,285,92,43.9672,26,106,732,-18.9167,13.7667,109,9.81667,20.8865,1332.75,20.9,-26.1,47,12.5667,-1.60833,252,-12.1333,1,0.1,60,0,14,2,16
2661,426,Lac Lablois,Pessiere a lichens,Collines de la Grande Riviere,Bas plateau du lac Sakami,228,53.03398,-76.333696,2,Bog,Bog,Bog uniforme,Lande arborEe,Pessiere,Pessiere de Picea mariana a Chamaedaphne calyculata et Sphagnum fuscum,296,93,44.3681,29,110,753,-18.75,13.7667,117,9.64167,20.646,1324.54,20.6,-26.1,46.7,12.5167,-1.5875,261,-11.9667,5,0,45,0,14,6,20
2670,432,Chisasibi nord,Pessiere a lichens,Collines de la Grande Riviere,Basses-terres du lac Duncan,46,53.789206,-78.859993,2,Bog,Bog,Bog uniforme,Arborescent,Pessiere,Pessiere de Picea mariana a Rhododendron groenlandicum et Sphagnum fuscum,223,66,45.865,20,78,578,-19.6167,12.25,89,9.70833,20.5685,1319.17,19.2,-28,47.2,11.8667,-2.42083,200,-13.1667,21,3,40,0,13,12,25
2673,432,Chisasibi nord,Pessiere a lichens,Collines de la Grande Riviere,Basses-terres du lac Duncan,46,53.789206,-78.859993,2,Fen,Fen a mares,Fen structurE,Lande arborEe,MElEzin,MElEzin a Carex oligosperma et Sphagnum,223,66,45.865,20,78,578,-19.6167,12.25,89,9.70833,20.5685,1319.17,19.2,-28,47.2,11.8667,-2.42083,200,-13.1667,21,3,40,5,37,7,44
2678,435,Riviere Caillet,Pessiere a lichens,Collines de la Grande Riviere,Basses-terres du lac Duncan,107,53.547956,-78.862186,2,Fen,Fen,Fen uniforme,Lande arborEe,Caricaie,Caricaie de Carex aquatilis a Larix laricina,229,68,45.9865,20,80,593,-19.7833,12.35,89,9.80833,20.6057,1327.24,19.3,-28.3,47.6,11.9667,-2.44583,207,-13.1167,120,0.1,65,0,21,8,29
2687,441,Lac Pamiskamis,Pessiere a lichens,Collines de la Grande Riviere,DEpression de la Grande Riviere,168,53.655952,-76.552363,2,Bog,Bog,Bog uniforme,Arborescent,Pessiere,Pessiere de Picea mariana a Rhododendron groenlandicum et Sphagnum fuscum,281,80,47.6274,26,106,701,-18.55,12.2667,106,8.33333,18.8537,1268.3,18.4,-25.8,44.2,12.0333,-2.05,244,-12.4167,20,1,125,0,6,7,13
2688,441,Lac Pamiskamis,Pessiere a lichens,Collines de la Grande Riviere,DEpression de la Grande Riviere,137,53.655952,-76.552363,2,Fen,Fen,Fen uniforme,HerbacE,Caricaie,Caricaie de Carex magellanica a Sphagnum riparium,281,80,47.6274,26,106,701,-18.55,12.2667,106,8.33333,18.8537,1268.3,18.4,-25.8,44.2,12.0333,-2.05,244,-12.4167,20,1,230,2,4,2,6
2689,441,Lac Pamiskamis,Pessiere a lichens,Collines de la Grande Riviere,DEpression de la Grande Riviere,137,53.655952,-76.552363,2,Fen,Fen,Fen uniforme,Lande arborEe,MElEzin,MElEzin a Carex exilis et Sphagnum russowii,281,80,47.6274,26,106,701,-18.55,12.2667,106,8.33333,18.8537,1268.3,18.4,-25.8,44.2,12.0333,-2.05,244,-12.4167,20,1,200,15,15,8,23
2693,443,Ruisseau Auchikwacikananusich,Pessiere a lichens,Collines de la Grande Riviere,DEpression de la Grande Riviere,198,53.741404,-76.195354,2,Fen,Fen a mares,Fen structurE,Lande arborEe,Herbacaie,Herbacaie de Trichophorum cespitosum a Larix laricina et Sphagnum,292,80,48.4752,26,110,718,-18.2,11.95,108,8.725,20.0115,1239.84,18.2,-25.4,43.6,11.3,-1.97917,254,-11.9167,20,12,135,20,30,9,39
2694,443,Ruisseau Auchikwacikananusich,Pessiere a lichens,Collines de la Grande Riviere,DEpression de la Grande Riviere,198,53.741404,-76.195354,2,Fen,Fen a mares,Fen structurE,HerbacE,Caricaie,Caricaie de Carex exilis a Sphagnum,292,80,48.4752,26,110,718,-18.2,11.95,108,8.725,20.0115,1239.84,18.2,-25.4,43.6,11.3,-1.97917,254,-11.9167,20,12,170,2,28,7,35
2695,443,Ruisseau Auchikwacikananusich,Pessiere a lichens,Collines de la Grande Riviere,DEpression de la Grande Riviere,198,53.741404,-76.195354,2,Bog,Bog,Bog uniforme,Lande arborEe,Pessiere,Pessiere de Picea mariana a Rhododendron groenlandicum et Sphagnum fuscum,292,80,48.4752,26,110,718,-18.2,11.95,108,8.725,20.0115,1239.84,18.2,-25.4,43.6,11.3,-1.97917,254,-11.9167,20,12,135,0,13,5,18
2696,444,Lac Kukamas W,Pessiere a lichens,Collines de la Grande Riviere,DEpression de la Grande Riviere,198,53.671447,-76.25397,2,Fen,Fen,Fen uniforme,Lande arborEe,Saulaie,Saulaie de Salix planifolia a Sphagnum girgensohnii,287,81,47.4781,26,107,715,-18.6167,12.8333,108,8.91667,19.7271,1285.5,19.4,-25.8,45.2,12,-1.9,252,-12.0833,75,1.5,185,20,33,11,44
2697,444,Lac Kukamas W,Pessiere a lichens,Collines de la Grande Riviere,DEpression de la Grande Riviere,198,53.671447,-76.25397,2,Bog,Bog,Bog uniforme,Lande arborEe,MElEzin,MElEzin a Chamaedaphne calyculata et Sphagnum warnstorfii,287,81,47.4781,26,107,715,-18.6167,12.8333,108,8.91667,19.7271,1285.5,19.4,-25.8,45.2,12,-1.9,252,-12.0833,75,1.5,198,20,18,4,22
2700,446,Pointe Anisustach,Pessiere a lichens,Collines de la Grande Riviere,Bas plateau du lac Julian,168,53.89584,-76.799222,2,Fen,Fen,Fen uniforme,HerbacE,Caricaie,Caricaie de Carex aquatilis a Sphagnum riparium,283,80,48.526,25,107,698,-19.3333,12.75,102,9.15,19.8913,1314.89,19.5,-26.5,46,7.93333,-2.3,244,-12.95,9.5,0.1,80,2,17,11,28
2702,446,Pointe Anisustach,Pessiere a lichens,Collines de la Grande Riviere,Bas plateau du lac Julian,137,53.89584,-76.799222,2,Fen,Fen,Fen uniforme,HerbacE,Caricaie,Caricaie de Carex aquatilis a Sphagnum annulatum,283,80,48.526,25,107,698,-19.3333,12.75,102,9.15,19.8913,1314.89,19.5,-26.5,46,7.93333,-2.3,244,-12.95,9.5,0.1,130,0,10,4,14
2708,450,Lac Kamansak,Pessiere a lichens,Collines de la Grande Riviere,DEpression de la Grande Riviere,198,53.800812,-75.750357,2,Fen,Fen a mares,Fen structurE,HerbacE,Caricaie,Caricaie de Carex exilis a Sphagnum,291,85,45.8785,27,106,728,-18.5667,10.8333,116,8.25833,19.3858,1223.26,16.7,-25.9,42.6,10.8333,-2.69583,257,-12.85,5,0.1,40,5,24,10,34
2715,454,Lac Magin,Pessiere a lichens,Collines de la Grande Riviere,Buttons de l'Opinaca,366,53.574388,-74.02767,2,Bog,Bog,Bog uniforme,Lande arborEe,Pessiere,Pessiere de Picea mariana a Chamaedaphne calyculata et Sphagnum recurvum,303,103,40.8384,31,106,772,-19.9333,13.0167,132,9.38333,20.0071,1340.04,19.5,-27.4,46.9,11.6,-2.76667,278,-13.3667,235,80,47,0,13,9,22
2716,454,Lac Magin,Pessiere a lichens,Collines de la Grande Riviere,Buttons de l'Opinaca,366,53.574388,-74.02767,2,Fen,Fen,Fen uniforme,Lande arborEe,Pessiere,Pessiere de Picea mariana a Chamaedaphne calyculata et Sphagnum russowii,303,103,40.8384,31,106,772,-19.9333,13.0167,132,9.38333,20.0071,1340.04,19.5,-27.4,46.9,11.6,-2.76667,278,-13.3667,235,80,75,0,18,5,23
2717,454,Lac Magin,Pessiere a lichens,Collines de la Grande Riviere,Buttons de l'Opinaca,366,53.574388,-74.02767,2,Fen,Fen a mares,Fen structurE,Lande arborEe,MElEzin,MElEzin a Carex exilis et Sphagnum recurvum,303,103,40.8384,31,106,772,-19.9333,13.0167,132,9.38333,20.0071,1340.04,19.5,-27.4,46.9,11.6,-2.76667,278,-13.3667,235,80,125,0,25,9,34
2718,455,Baie Waminancis,Pessiere a lichens,Collines de la Grande Riviere,DEpression de la Grande Riviere,533,53.724554,-74.27273,2,Fen,Fen,Fen uniforme,Lande arborEe,Pessiere,Pessiere de Picea mariana a Chamaedaphne calyculata et Sphagnum fuscum,294,92,43.2024,29,103,742,-19.3667,12.4167,124,8.775,19.4568,1298.72,18.4,-26.7,45.1,11.4,-2.55417,270,-12.9,8,2,52,0,21,10,31
2719,456,Lac Chabran,Pessiere a lichens,Collines de la Grande Riviere,Buttons de l'Opinaca,411,53.179568,-74.223973,2,Fen,Fen,Fen uniforme,HerbacE,Caricaie,Caricaie de Carex oligosperma a Sphagnum pulchrum,311,104,40.5257,32,109,801,-19.7,12.6833,140,9.83333,21.0114,1317.2,19.4,-27.4,46.8,11.3333,-2.66667,289,-12.8667,108,11,160,0,12,3,15
2720,456,Lac Chabran,Pessiere a lichens,Collines de la Grande Riviere,Buttons de l'Opinaca,411,53.179568,-74.223973,2,Bog,Bog,Bog uniforme,Arbustif,Ericacaie,Ericacaie de Chamaedaphne calyculata a Carex oligosperma et Sphagnum,311,104,40.5257,32,109,801,-19.7,12.6833,140,9.83333,21.0114,1317.2,19.4,-27.4,46.8,11.3333,-2.66667,289,-12.8667,108,11,80,0,11,5,16
2731,462,Lac Montviel,Pessiere a lichens,Plateau central du Nord-du-QuEbec,DEpression du rEservoir Caniapiscau,564,53.79853,-70.154305,2,Bog,Bog,Bog uniforme,Lande arborEe,Pessiere,Pessiere de Picea mariana a Chamaedaphne calyculata et Sphagnum,322,113,42.9154,31,112,793,-21.8,11.0167,116,10.0333,21.0342,1329.96,17.8,-29.9,47.7,9.93333,-4.6,302,-20.7,5,1,58,0,13,6,19
2733,464,Lac Chatenay,Pessiere a lichens,Plateau central du Nord-du-QuEbec,DEpression du rEservoir Caniapiscau,625,53.88333333,-69.88333333,2,Bog,Bog,Bog uniforme,HerbacE,Caricaie,Caricaie de Carex oligosperma a Chamaedaphne calyculata et Sphagnum,323,114,42.1437,32,113,802,-22.0333,11.3833,119,10.3333,21.262,1352.93,18.5,-30.1,48.6,10.1667,-4.64167,302,-20.9167,1,0.1,60,2,13,6,19
2734,465,Lac Sauvageau,Pessiere a lichens,Plateau central du Nord-du-QuEbec,DEpression du rEservoir Caniapiscau,594,53.872477,-68.703051,2,Fen,Fen a mares,Fen structurE,HerbacE,Caricaie,Caricaie de Carex oligosperma a Chamaedaphne calyculata et Sphagnum,320,132,36.6131,36,114,834,-21.95,11.4333,132,10.3417,21.3671,1347.86,18.6,-29.8,48.4,10.2333,-4.6875,296,-21.95,335,150,63,0,21,12,33
2735,465,Lac Sauvageau,Pessiere a lichens,Plateau central du Nord-du-QuEbec,DEpression du rEservoir Caniapiscau,594,53.872477,-68.703051,2,Fen,Fen a mares,Fen structurE,HerbacE,Caricaie,Caricaie de Carex oligosperma a Sphagnum,320,132,36.6131,36,114,834,-21.95,11.4333,132,10.3417,21.3671,1347.86,18.6,-29.8,48.4,10.2333,-4.6875,296,-21.95,335,150,75,0,29,9,38
2736,465,Lac Sauvageau,Pessiere a lichens,Plateau central du Nord-du-QuEbec,DEpression du rEservoir Caniapiscau,594,53.872477,-68.703051,2,Fen,Fen a mares,Fen structurE,HerbacE,Caricaie,Caricaie de Carex exilis a Sphagnum,320,132,36.6131,36,114,834,-21.95,11.4333,132,10.3417,21.3671,1347.86,18.6,-29.8,48.4,10.2333,-4.6875,296,-21.95,335,150,62,0,26,7,33
2737,466,Lac Maggiolo,Pessiere a lichens,Plateau central du Nord-du-QuEbec,DEpression du rEservoir Caniapiscau,594,53.38333333,-68.71666667,2,Fen,Fen,Fen uniforme,Arborescent,Saulaie,Saulaie a Sphagnum,336,140,36.2834,39,119,876,-21.5333,11.25,141,10.2583,21.6421,1323.41,18.1,-29.3,47.4,10.1333,-4.47083,312,-20.1333,1130,565,48,0,29,8,37
2738,466,Lac Maggiolo,Pessiere a lichens,Plateau central du Nord-du-QuEbec,DEpression du rEservoir Caniapiscau,594,53.38333333,-68.71666667,2,Fen,Fen,Fen uniforme,HerbacE,Caricaie,Caricaie de Carex chordorrhiza a Tomenthypnum nitens,336,140,36.2834,39,119,876,-21.5333,11.25,141,10.2583,21.6421,1323.41,18.1,-29.3,47.4,10.1333,-4.47083,312,-20.1333,1130,565,80,0,25,5,30
2739,466,Lac Maggiolo,Pessiere a lichens,Plateau central du Nord-du-QuEbec,DEpression du rEservoir Caniapiscau,594,53.38333333,-68.71666667,2,Fen,Fen a mares,Fen structurE,Lande arborEe,MElEzin,MElEzin a Trichophorum cespitosum et Sphagnum,336,140,36.2834,39,119,876,-21.5333,11.25,141,10.2583,21.6421,1323.41,18.1,-29.3,47.4,10.1333,-4.47083,312,-20.1333,1130,565,79,2,23,12,35
2740,467,Lac Perroche,Pessiere a lichens,Plateau central du Nord-du-QuEbec,DEpression du rEservoir Caniapiscau,625,53.486497,-68.194367,2,Bog,Bog,Bog uniforme,Arbustif,Saulaie,Saulaie a Sphagnum,327,140,35.4418,38,118,862,-21.5167,11.0333,142,10.3167,21.9038,1312.3,18,-29.1,47.1,9.9,-4.58333,304,-20.0333,63,12,63,1,27,7,34
2741,467,Lac Perroche,Pessiere a lichens,Plateau central du Nord-du-QuEbec,DEpression du rEservoir Caniapiscau,625,53.486497,-68.194367,2,Fen,Fen a mares,Fen structurE,HerbacE,Caricaie,Caricaie de Carex oligosperma a Sphagnum,327,140,35.4418,38,118,862,-21.5167,11.0333,142,10.3167,21.9038,1312.3,18,-29.1,47.1,9.9,-4.58333,304,-20.0333,63,12,55,0,21,7,28
2742,468,Rapide du Trois,Pessiere a lichens,Plateau central du Nord-du-QuEbec,DEpression du rEservoir Caniapiscau,594,53.697637,-68.50449,2,Fen,Fen,Fen uniforme,Lande arborEe,MElEzin,MElEzin a Betula glandulosa et Sphagnum girgensohnii,319,137,35.2492,37,115,844,-21.8167,10.85,137,10.275,21.6772,1320.28,17.9,-29.5,47.4,9.78333,-4.7875,298,-20.4333,20.5,15,74,0,26,9,35
2744,468,Rapide du Trois,Pessiere a lichens,Plateau central du Nord-du-QuEbec,DEpression du rEservoir Caniapiscau,594,53.697637,-68.50449,2,Fen,Fen a mares,Fen structurE,HerbacE,Herbacaie,Herbacaie de Calamagrostis canadensis a Sphagnum riparium,319,137,35.2492,37,115,844,-21.8167,10.85,137,10.275,21.6772,1320.28,17.9,-29.5,47.4,9.78333,-4.7875,298,-20.4333,20.5,15,80,0,8,3,11
2745,469,Lac Aubanel,Pessiere a lichens,Plateau central du Nord-du-QuEbec,DEpression du rEservoir Caniapiscau,594,53.560876,-70.207533,2,Fen,Fen,Fen uniforme,HerbacE,Caricaie,Caricaie de Carex oligosperma a Sphagnum,328,115,43.159,32,114,809,-21.7167,11.6167,118,10.3,21.2371,1349.05,18.6,-29.9,48.5,10.4,-4.325,310,-20.5667,5,2,120,0,6,6,12
2746,469,Lac Aubanel,Pessiere a lichens,Plateau central du Nord-du-QuEbec,DEpression du rEservoir Caniapiscau,594,53.560876,-70.207533,2,Bog,Bog,Bog uniforme,Arbustif,Ericacaie,Ericacaie de Chamaedaphne calyculata a Carex oligosperma et Sphagnum,328,115,43.159,32,114,809,-21.7167,11.6167,118,10.3,21.2371,1349.05,18.6,-29.9,48.5,10.4,-4.325,310,-20.5667,5,2,66,0,17,8,25
2747,470,Lac Larive,Pessiere a lichens,Plateau central du Nord-du-QuEbec,DEpression du rEservoir Caniapiscau,564,53.68333333,-70.03333333,2,Fen,Fen a mares,Fen structurE,HerbacE,Caricaie,Caricaie de Carex limosa a Calliergon stramineum,323,120,40.3579,34,113,816,-21.8333,12.0167,120,10.5,21.3415,1368.6,19.1,-30.1,49.2,10.6833,-4.25833,305,-21.8333,108,80,98,10,15,6,21
2748,470,Lac Larive,Pessiere a lichens,Plateau central du Nord-du-QuEbec,DEpression du rEservoir Caniapiscau,564,53.68333333,-70.03333333,2,Bog,Bog,Bog uniforme,HerbacE,Caricaie,Caricaie de Carex magellanica a Sphagnum majus,323,120,40.3579,34,113,816,-21.8333,12.0167,120,10.5,21.3415,1368.6,19.1,-30.1,49.2,10.6833,-4.25833,305,-21.8333,108,80,133,0,9,2,11
2749,471,Lac Rambau,Pessiere a lichens,Plateau central du Nord-du-QuEbec,DEpression du rEservoir Caniapiscau,655,53.71767,-70.145376,2,Bog,Bog,Bog uniforme,Arborescent,Sapiniere,Sapiniere a Sphagnum,322,115,42.6565,32,112,794,-21.7833,11.3833,117,10.0917,20.9806,1344.02,18.2,-29.9,48.1,10.3,-4.4625,304,-20.6833,17,13,46,2,20,11,31
2752,474,Lac Cabanac,Pessiere a lichens,Plateau central du Nord-du-QuEbec,Plateau de la riviere Naocacane,533,53.321529,-71.086466,2,Fen,Fen,Fen uniforme,Lande arborEe,MElEzin,MElEzin a Betula glandulosa et Sphagnum girgensohnii,325,107,45.5934,31,113,789,-21.5,12.3,113,10.2917,21.0464,1368.67,19,-29.9,48.9,11,-3.8625,308,-14.4,12,2,40,5,35,8,43
2753,474,Lac Cabanac,Pessiere a lichens,Plateau central du Nord-du-QuEbec,Plateau de la riviere Naocacane,533,53.321529,-71.086466,2,Fen,Fen a mares,Fen structurE,HerbacE,Caricaie,Caricaie de Carex limosa,325,107,45.5934,31,113,789,-21.5,12.3,113,10.2917,21.0464,1368.67,19,-29.9,48.9,11,-3.8625,308,-14.4,12,2,42,65,15,4,19
2761,478,Lac Dalmas,Pessiere a lichens,Plateau central du Nord-du-QuEbec,Plateau de la riviere Naocacane,503,53.4027,-71.9255,2,Fen,Fen,Fen uniforme,Arborescent,Pessiere,Pessiere de Picea mariana a Carex trisperma et Sphagnum girgensohnii,317,107,43.1779,33,112,786,-20.8833,12.3333,122,10.1,20.9979,1348.03,19.2,-28.9,48.1,11.05,-3.5,299,-13.9,12,2,40,2,31,10,41
2762,478,Lac Dalmas,Pessiere a lichens,Plateau central du Nord-du-QuEbec,Plateau de la riviere Naocacane,503,53.4027,-71.9255,2,Fen,Fen,Fen uniforme,Arbustif,Ericacaie,Ericacaie de Chamaedaphne calyculata a Sphagnum,317,107,43.1779,33,112,786,-20.8833,12.3333,122,10.1,20.9979,1348.03,19.2,-28.9,48.1,11.05,-3.5,299,-13.9,12,2,97,5,33,9,42
2763,478,Lac Dalmas,Pessiere a lichens,Plateau central du Nord-du-QuEbec,Plateau de la riviere Naocacane,503,53.4027,-71.9255,2,Fen,Fen a mares,Fen structurE,HerbacE,Herbacaie,Herbacaie de Trichophorum cespitosum a Carex exilis et Sphagnum,317,107,43.1779,33,112,786,-20.8833,12.3333,122,10.1,20.9979,1348.03,19.2,-28.9,48.1,11.05,-3.5,299,-13.9,12,2,41,3,15,7,22
2764,478,Lac Dalmas,Pessiere a lichens,Plateau central du Nord-du-QuEbec,Plateau de la riviere Naocacane,503,53.4027,-71.9255,2,Fen,Fen a mares,Fen structurE,Arbustif,Ericacaie,Ericacaie a Sphagnum,317,107,43.1779,33,112,786,-20.8833,12.3333,122,10.1,20.9979,1348.03,19.2,-28.9,48.1,11.05,-3.5,299,-13.9,12,2,45,85,9,4,13
2765,479,Lac Grandfontaine,Pessiere a lichens,Plateau central du Nord-du-QuEbec,Plateau de la riviere Naocacane,564,53.21666667,-70.63333333,2,Fen,Fen a mares,Fen structurE,HerbacE,Caricaie,Caricaie de Carex exilis a Sphagnum,333,118,43.3368,33,116,824,-21.5667,12.4333,118,10.7167,21.5627,1376.15,19.5,-30.2,49.7,11.05,-3.84167,318,-21.5667,26,20,134,4,25,8,33
2766,479,Lac Grandfontaine,Pessiere a lichens,Plateau central du Nord-du-QuEbec,Plateau de la riviere Naocacane,564,53.21666667,-70.63333333,2,Fen,Fen,Fen uniforme,Arborescent,Pessiere,Pessiere de Picea mariana a Betula glandulosa et Sphagnum girgensohnii,333,118,43.3368,33,116,824,-21.5667,12.4333,118,10.7167,21.5627,1376.15,19.5,-30.2,49.7,11.05,-3.84167,318,-21.5667,26,20,45,1,33,10,43
2767,480,Nord Lac Joubert,Pessiere a lichens,Plateau central du Nord-du-QuEbec,Plateau de la riviere Naocacane,503,53.31416,-71.626483,2,Fen,Fen a mares,Fen structurE,HerbacE,Caricaie,Caricaie de Carex oligosperma a Larix laricina et Sphagnum recurvum,325,110,43.8547,33,114,800,-21.0833,12.3333,121,10.2083,21.0916,1355.32,19.2,-29.2,48.4,11.0333,-3.62083,308,-14.0667,94,65,52,15,15,5,20
2768,480,Nord Lac Joubert,Pessiere a lichens,Plateau central du Nord-du-QuEbec,Plateau de la riviere Naocacane,503,53.31416,-71.626483,2,Fen,Fen,Fen uniforme,Lande arborEe,Betulaie,Betulaie de Betula glandulosa a Carex trsiperma et Sphagnum,325,110,43.8547,33,114,800,-21.0833,12.3333,121,10.2083,21.0916,1355.32,19.2,-29.2,48.4,11.0333,-3.62083,308,-14.0667,94,65,43,8,37,10,47
2769,480,Nord Lac Joubert,Pessiere a lichens,Plateau central du Nord-du-QuEbec,Plateau de la riviere Naocacane,503,53.31416,-71.626483,2,Fen,Fen a mares,Fen structurE,HerbacE,Caricaie,Caricaie de Carex limosa,325,110,43.8547,33,114,800,-21.0833,12.3333,121,10.2083,21.0916,1355.32,19.2,-29.2,48.4,11.0333,-3.62083,308,-14.0667,94,65,42,10,8,1,9
2770,481,Lac Orillat Est,Pessiere a lichens,Plateau central du Nord-du-QuEbec,Plateau de la riviere Naocacane,503,53.021758,-72.268846,2,Fen,Fen,Fen uniforme,Arborescent,Pessiere,"Pessiere de Picea mariana a Chamaedaphne calyculata, Rhododendron groenlandicum et Sphagnum",320,114,40.1273,36,112,821,-20.4833,12.55,136,10.3083,21.3866,1339.05,19.5,-28.7,48.2,11.1167,-3.22083,308,-13.4833,48,24,40,0,14,9,23
2771,482,Lac Ernst,Pessiere a lichens,Plateau central du Nord-du-QuEbec,Plateau de la riviere Naocacane,503,53.2,-72.38333333,2,Fen,Fen,Fen uniforme,Arborescent,Pessiere,"Pessiere de Picea mariana a Chamaedaphne calyculata, Rhododendron groenlandicum et Sphagnum fuscum",325,110,41.8112,36,115,818,-20.7333,12.0667,135,10.125,21.182,1331.9,18.9,-28.9,47.8,10.7167,-3.57083,310,-13.8167,1,0.1,47,0,20,10,30
2772,483,Mine Jos Mann,Pessiere a mousses,Hautes-terres de Mistassini,DEpression de la Chibougamau,411,49.5,-74.5,2,Bog,Bog,Bog uniforme,Arbustif,Ericacaie,Ericacaie a Sphagnum,352,141,34.7398,45,122,960,-16.8667,14.6833,169,11.6,24.3697,1276.73,22.4,-25.2,47.6,13.4333,-0.141667,332,-9.3,9.8,0.5,300,0,13,5,18
2773,484,Riviere Assinica,Pessiere a mousses,Hautes-terres de Mistassini,Plateau de la haute Rupert,351,50.621477,-75.573437,2,Bog,Bog,Bog uniforme,Arbustif,Ericacaie,Ericacaie de Andromeda polifolia var. latifolia a Carex oligosperma et Sphagnum,333,120,37.626,38,112,891,-17.6333,14.2333,152,10.925,23.0973,1291.02,21.7,-25.6,47.3,13.0333,-0.695833,316,-10.1,190,4,210,0,10,6,16
2774,484,Riviere Assinica,Pessiere a mousses,Hautes-terres de Mistassini,Plateau de la haute Rupert,351,50.621477,-75.573437,2,Bog,Bog,Bog uniforme,Arbustif,Ericacaie,Ericacaie de Chamaedaphne calyculata a Sphagnum fuscum,333,120,37.626,38,112,891,-17.6333,14.2333,152,10.925,23.0973,1291.02,21.7,-25.6,47.3,13.0333,-0.695833,316,-10.1,190,4,125,0,10,3,13
2780,490,Lac Testard,Pessiere a mousses,Hautes-terres de Mistassini,Plateau de la haute Rupert,441,50.850086,-74.441041,2,Bog,Bog,Bog uniforme,Arbustif,Ericacaie,Ericacaie de Chamaedaphne calyculata a Carex oligosperma et Sphagnum fuscum,335,152,29.5592,43,114,961,-18.0667,14.2333,206,10.9167,22.9342,1306.39,21.5,-26.1,47.6,12.8833,-1.04167,321,-10.6667,6.5,0.5,95,1,11,4,15
2783,492,Lac Kaanikuuchasimku,Pessiere a mousses,Hautes-terres de Mistassini,Plateau de la haute Rupert,472,50.450216,-74.303372,2,Bog,Bog a mares,Bog structurE,Arbustif,Ericacaie,Ericacaie de Chamaedaphne calyculata a Sphagnum,349,165,28.3872,48,117,1012,-17.9333,14,220,11.3667,23.8295,1293.42,21.6,-26.1,47.7,12.6833,-1.05833,336,-10.4833,0.7,0.1,220,0,14,5,19
2784,493,Lac du Sauvage,Pessiere a mousses,Hautes-terres de Mistassini,DEpression de la Chibougamau,366,50.1,-74.43333333,2,Fen,Fen,Fen uniforme,HerbacE,Caricaie,Caricaie de Carex limosa et Carex lasiocarpa a Scorpidium scorpioides,351,153,31.1564,46,122,992,-17.4167,14.1333,191,11.3917,24.0839,1277.1,21.7,-25.6,47.3,12.8667,-0.679167,334,-9.88333,105,20,175,0,16,4,20
2785,494,Guyon,Pessiere a mousses,Hautes-terres de Mistassini,Lac Mistassini,411,50.58333333,-73.66666667,2,Fen,Fen a mares,Fen structurE,HerbacE,Herbacaie,Herbacaie de Trichophorum cespitosum,335,171,26.9821,46,119,1013,-17.8833,13.85,250,11.2667,23.6695,1284.99,21.3,-26.3,47.6,12.6,-1.1,328,-10.4667,20,1,285,5,10,1,11
2786,494,Guyon,Pessiere a mousses,Hautes-terres de Mistassini,Lac Mistassini,411,50.58333333,-73.66666667,2,Fen,Fen a mares,Fen structurE,HerbacE,Herbacaie,Herbacaie de Trichophorum cespitosum a Sphagnum,335,171,26.9821,46,119,1013,-17.8833,13.85,250,11.2667,23.6695,1284.99,21.3,-26.3,47.6,12.6,-1.1,328,-10.4667,20,1,110,3,15,2,17
2787,495,Sud Lac Opataca,Pessiere a mousses,Hautes-terres de Mistassini,Plateau de la haute Rupert,366,50.35,-74.76666667,2,Fen,Fen a mares,Fen structurE,Arbustif,Ericacaie,Ericacaie de Andromeda polifolia var. latifolia a Sphagnum,347,138,33.9147,44,118,954,-17.7,14.0833,179,11.3,23.8397,1286.22,21.6,-25.8,47.4,12.8167,-0.841667,327,-10.1,26,0.1,170,5,13,7,20
2788,496,Sud Lac Lloyd,Pessiere a mousses,Hautes-terres de Mistassini,Plateau de la haute Rupert,289,52.135797,-75.518591,2,Fen,Fen a mares,Fen structurE,Arbustif,Arbustaie,Arbustaie de Myrica gale a Carex exilis,313,112,38.5185,35,110,831,-18.55,14.3,144,10.15,21.4588,1333.36,21.2,-26.1,47.3,12.9833,-1.26667,287,-11.5,185,20,180,15,18,5,23
2789,497,Lac Kauakiekamatsh,Pessiere a mousses,Hautes-terres de Mistassini,Plateau de la haute Rupert,289,52.052548,-75.200484,2,Bog,Bog a mares,Bog structurE,Arbustif,Ericacaie,Ericacaie de Chamaedaphne calyculata a Sphagnum,317,120,36.6861,36,108,851,-18.6667,14.1,153,10.6167,22.2106,1331.22,21.4,-26.4,47.8,12.6667,-1.38333,295,-11.5167,38,0.8,145,2,17,7,24
2790,497,Lac Kauakiekamatsh,Pessiere a mousses,Hautes-terres de Mistassini,Plateau de la haute Rupert,289,52.052548,-75.200484,2,Fen,Fen a mares,Fen structurE,Arbustif bas,Ericacaie,Ericacaie a Sphagnum,317,120,36.6861,36,108,851,-18.6667,14.1,153,10.6167,22.2106,1331.22,21.4,-26.4,47.8,12.6667,-1.38333,295,-11.5167,38,0.8,240,35,10,5,15
2791,497,Lac Kauakiekamatsh,Pessiere a mousses,Hautes-terres de Mistassini,Plateau de la haute Rupert,289,52.052548,-75.200484,2,Fen,Fen a mares,Fen structurE,Arbustif,Ericacaie,Ericacaie de Chamaedaphne calyculata a Sphagnum pulchrum,317,120,36.6861,36,108,851,-18.6667,14.1,153,10.6167,22.2106,1331.22,21.4,-26.4,47.8,12.6667,-1.38333,295,-11.5167,38,0.8,155,30,13,2,15
2792,498,Les Melezes,Pessiere a mousses,Basses-terres de la baie James,Plaine de Waskaganish,228,52.05,-76.46666667,2,Fen,Fen,Fen uniforme,Arbustif,Ericacaie,Ericacaie de Andromeda polifolia var. latifolia a Carex oligosperma et Sphagnum recurvum,308,102,41.7533,30,111,801,-18.45,14.05,126,10.5,22.1987,1323.36,21.4,-25.9,47.3,12.8167,-1.175,278,-11.2667,815,35,200,0,10,4,14
2793,498,Les Melezes,Pessiere a mousses,Basses-terres de la baie James,Plaine de Waskaganish,228,52.05,-76.46666667,2,Bog,Bog a mares,Bog structurE,Arbustif,Ericacaie,Ericacaie de Chamaedaphne calyculata a Trichophorum cespitosum et Sphagnum,308,102,41.7533,30,111,801,-18.45,14.05,126,10.5,22.1987,1323.36,21.4,-25.9,47.3,12.8167,-1.175,278,-11.2667,815,35,300,5,19,5,24
2794,498,Les Melezes,Pessiere a mousses,Basses-terres de la baie James,Plaine de Waskaganish,228,52.05,-76.46666667,2,Fen,Fen a mares,Fen structurE,HerbacE,Caricaie,Caricaie de Carex oligosperma a Sphagnum majus,308,102,41.7533,30,111,801,-18.45,14.05,126,10.5,22.1987,1323.36,21.4,-25.9,47.3,12.8167,-1.175,278,-11.2667,815,35,210,15,10,2,12
2796,500,Nord Lac Saint-Armand,Pessiere a lichens,Collines de la Grande Riviere,Buttons de l'Opinaca,289,52.281608,-75.823158,2,Bog,Bog,Bog uniforme,Lande arborEe,Pessiere,Pessiere de Picea mariana a Chamaedaphne calyculata et Sphagnum fuscum,311,101,41.6884,33,111,808,-18.5333,14.1333,134,10.375,21.8421,1328.22,21.4,-26.1,47.5,12.7333,-1.27083,282,-11.4167,2.6,0,300,0,15,6,21
2797,500,Nord Lac Saint-Armand,Pessiere a mousses,Collines de la Grande Riviere,Buttons de l'Opinaca,289,52.281608,-75.823158,2,Fen,Fen,Fen uniforme,HerbacE,Caricaie,Caricaie de Carex oligosperma a Sphagnum,311,101,41.6884,33,111,808,-18.5333,14.1333,134,10.375,21.8421,1328.22,21.4,-26.1,47.5,12.7333,-1.27083,282,-11.4167,2.6,0,145,15,12,5,17
2803,504,Lac Mistamiskwas,Pessiere a lichens,Collines de la Grande Riviere,Bas plateau du lac Sakami,259,52.536447,-76.626643,2,Bog,Bog,Bog uniforme,Lande arborEe,Pessiere,Pessiere de Picea mariana a Chamaedaphne calyculata et Sphagnum,299,98,42.9039,29,112,774,-18.4833,14.0333,120,9.76667,20.9136,1321.67,21,-25.7,46.7,12.8167,-1.3,263,-11.5833,248,10,290,0,18,4,22
2804,505,Petite riviere Opinaca,Pessiere a mousses,Basses-terres de la baie James,Plaine de Waskaganish,198,52.436356,-77.05603,2,Fen,Fen,Fen uniforme,Arbustif,Ericacaie,Ericacaie a Picea mariana et Sphagnum,292,87,45.4409,25,109,745,-18.5167,13.7833,111,10.1583,21.6135,1317.08,21.1,-25.9,47,12.65,-1.29583,258,-11.4667,400,3,50,0,14,4,18
2805,506,Lac Menouow,Pessiere a lichens,Collines de la Grande Riviere,Bas plateau du lac Sakami,228,52.727084,-76.158581,2,Bog,Bog,Bog uniforme,Arbustif,Ericacaie,Ericacaie de Andromeda polifolia var. latifolia a Sphagnum fuscum,298,101,41.5644,30,107,774,-18.5333,13.85,122,9.61667,20.7256,1317.75,20.6,-25.8,46.4,12.7167,-1.425,268,-11.7833,1210,20,300,0,16,5,21
2806,507,Eastman,Pessiere a mousses,Basses-terres de la baie James,Plaine de Waskaganish,46,52.22437,-78.417556,2,Fen,Fen,Fen uniforme,HerbacE,Caricaie,Caricaie de Carex aquatilis,263,75,47.4848,19,92,671,-18.05,13.8333,93,9.825,21.1746,1306.14,20.8,-25.6,46.4,9.46667,-0.870833,225,-11.1167,13500,800,115,0,9,1,10
2807,508,Lac Kawayapiskach,Pessiere a lichens,Collines de la Grande Riviere,Basses-terres du lac Duncan,76,52.607761,-78.517191,2,Fen,Fen,Fen uniforme,HerbacE,Caricaie,Caricaie de Carex exilis a Dasiphora fruticosa,255,69,48.5608,19,91,651,-18.7,13.1833,92,10.1583,21.5676,1307.7,20.4,-26.7,47.1,8.88333,-1.47083,221,-11.7333,20,10,175,0,21,4,25
2836,523,Lac Chamer,Pessiere a lichens,Plateau central du Nord-du-QuEbec,DEpression du rEservoir Caniapiscau,533,54.579647,-69.788301,2,Bog,Bog,Bog uniforme,HerbacE,Herbacaie,Herbacaie de Trichophorum cespitosum a Sphagnum,296,111,40.6943,31,104,743,-22.3,10.45,113,9.83333,20.5718,1334.58,17.6,-30.2,47.8,9.81667,-5.16667,275,-21.3667,4,1.5,195,2,16,7,23
2837,523,Lac Chamer,Pessiere a lichens,Plateau central du Nord-du-QuEbec,DEpression du rEservoir Caniapiscau,533,54.579647,-69.788301,2,Fen,Fen a mares,Fen structurE,HerbacE,Herbacaie,Herbacaie de Trichophorum cespitosum a Carex limosa,296,111,40.6943,31,104,743,-22.3,10.45,113,9.83333,20.5718,1334.58,17.6,-30.2,47.8,9.81667,-5.16667,275,-21.3667,4,1.5,40,55,16,3,19
2841,525,Lac Malapart,Pessiere a lichens,Plateau central du Nord-du-QuEbec,DEpression du rEservoir Caniapiscau,533,54.2,-68.91666667,2,Fen,Fen a mares,Fen structurE,HerbacE,Herbacaie,Herbacaie de Trichophorum cespitosum a Carex oligosperma et Cladina,313,126,38.0438,35,110,802,-22.2833,10.95,126,10.3833,21.4532,1343.65,18.2,-30.2,48.4,9.78333,-5.00833,288,-21.0333,1700,1000,50,20,28,7,35
2842,525,Lac Malapart,Pessiere a lichens,Plateau central du Nord-du-QuEbec,DEpression du rEservoir Caniapiscau,533,54.2,-68.91666667,2,Fen,Fen a mares,Fen structurE,HerbacE,Caricaie,Caricaie,313,126,38.0438,35,110,802,-22.2833,10.95,126,10.3833,21.4532,1343.65,18.2,-30.2,48.4,9.78333,-5.00833,288,-21.0333,1700,1000,86,45,8,4,12
2843,526,Lac Dolu,Pessiere a lichens,Plateau central du Nord-du-QuEbec,Plateau du lac du Sable,533,54.761143,-68.828147,2,Fen,Fen a mares,Fen structurE,HerbacE,Caricaie,Caricaie de Carex exilis,298,117,39.1892,32,107,754,-22.6833,10.4,119,10.1917,21.1885,1338.94,17.7,-30.4,48.1,9.35,-5.4625,273,-21.5,2.4,1.2,72,17,19,7,26
2852,534,Lac Kanakapahan,Pessiere a lichens,Collines de la Grande Riviere,Bas plateau du lac Sakami,259,52.55,-76.25,2,Bog,Bog,Bog uniforme,Lande arborEe,Pessiere,Pessiere de Picea mariana a Chamaedaphne calyculata et Sphagnum fuscum,297,98,42.0632,30,108,771,-18.2333,13.4333,123,9.23333,20.3377,1288.91,20,-25.4,45.4,12.6167,-1.41667,266,-11.4833,153,0.1,100,0,12,7,19
2853,535,Riviere Eastman est,Pessiere a mousses,Basses-terres de la baie James,Plaine de Waskaganish,76,52.182418,-77.743214,2,Bog,Bog,Bog uniforme,Lande arborEe,Pessiere,Pessiere de Picea mariana a Chamaedaphne calyculata et Sphagnum recurvum,282,86,45.1194,23,102,732,-18.0667,14.25,105,9.975,21.2687,1320.66,21.5,-25.4,46.9,9.08333,-0.795833,250,-11.0833,640,48,55,0,12,7,19
2854,536,Lac McNab,Pessiere a lichens,Collines de la Grande Riviere,Bas plateau du lac Sakami,198,52.91666667,-77.38333333,2,Bog,Bog,Bog uniforme,Lande arborEe,Pessiere,Pessiere de Picea mariana a Rhododendron groenlandicum et Sphagnum fuscum,288,88,46.2636,24,109,727,-19.15,13.8333,104,10.15,21.2788,1347.1,21.1,-26.6,47.7,8.45,-1.65833,247,-12.3333,170,5,70,0,8,6,14
2856,538,Lac Assinica,Pessiere a mousses,Hautes-terres de Mistassini,Plateau de la haute Rupert,472,50.45,-75.4,2,Fen,Fen,Fen uniforme,Arborescent,Pessiere,Pessiere de Picea mariana a Rhododendron groenlandicum et Sphagnum,342,125,37.2048,40,117,919,-17.8167,13.95,158,11.15,23.5729,1286.13,21.5,-25.8,47.3,12.7167,-0.941667,323,-10.2167,5,0,75,0,8,5,13
2865,547,Epimichischiskach Esayau,Pessiere a mousses,Basses-terres de la baie James,Plaine de Waskaganish,137,51.43333333,-77.83333333,2,Bog,Bog,Bog uniforme,HerbacE,Herbacaie,Herbacaie de Trichophorum cespitosum a Sphagnum,293,98,41.7822,25,101,776,-17.0667,14.6833,114,9.6,21.0066,1297.52,21.7,-24,45.7,13.6333,-0.183333,270,-10.25,4900,1600,300,0,15,4,19
2867,548,Route de la Baie James,Pessiere a mousses,Basses-terres de la baie James,Plaine de Waskaganish,259,51.378988,-77.456389,2,Bog,Bog,Bog uniforme,Lande arborEe,Pessiere,Pessiere de Picea mariana a Chamaedaphne calyculata et Sphagnum fuscum,306,106,40.7673,27,105,815,-17.4333,14.45,122,10.15,21.9697,1299.8,21.7,-24.5,46.2,13.2667,-0.541667,284,-10.5167,20,2.5,185,0,17,6,23
2868,548,Route de la Baie James,Pessiere a mousses,Basses-terres de la baie James,Plaine de Waskaganish,259,51.378988,-77.456389,2,Fen,Fen,Fen uniforme,Lande arborEe,Pessiere,Pessiere de Picea mariana a Chamaedaphne calyculata et Sphagnum fuscum,306,106,40.7673,27,105,815,-17.4333,14.45,122,10.15,21.9697,1299.8,21.7,-24.5,46.2,13.2667,-0.541667,284,-10.5167,20,2.5,105,0,12,6,18
2869,549,Lac 198,Pessiere a lichens,Collines de la Grande Riviere,Basses-terres du lac Duncan,198,52.55,-77.5,2,Fen,Fen,Fen uniforme,HerbacE,Caricaie,Caricaie de Carex aquatilis a Sphagnum pulchrum,285,89,44.9453,24,105,737,-18.9167,14.1833,106,10.4,21.6216,1351.25,21.7,-26.4,48.1,8.63333,-1.375,252,-11.9833,35,3,195,0,12,4,16
2870,549,Lac 198,Pessiere a lichens,Collines de la Grande Riviere,Basses-terres du lac Duncan,198,52.55,-77.5,2,Bog,Bog,Bog uniforme,Lande arborEe,Pessiere,Pessiere de Picea mariana a Chamaedaphne calyculata et Sphagnum fuscum,285,89,44.9453,24,105,737,-18.9167,14.1833,106,10.4,21.6216,1351.25,21.7,-26.4,48.1,8.63333,-1.375,252,-11.9833,35,3,46,0,10,4,14
2871,549,Lac 198,Pessiere a lichens,Collines de la Grande Riviere,Basses-terres du lac Duncan,198,52.55,-77.5,2,Bog,Bog,Bog uniforme,HerbacE,Caricaie,Caricaie de Carex oligosperma a Sphagnum,285,89,44.9453,24,105,737,-18.9167,14.1833,106,10.4,21.6216,1351.25,21.7,-26.4,48.1,8.63333,-1.375,252,-11.9833,35,3,65,0,16,6,22
2872,550,Waskaganish,Pessiere a mousses,Basses-terres de la baie James,Plaine de Waskaganish,46,51.5,-78.48333333,2,Bog,Bog a mares,Bog structurE,HerbacE,Herbacaie,Herbacaie de Trichophorum cespitosum a Sphagnum,278,89,43.608,22,97,729,-16.3,15.05,104,8.33333,18.7266,1280.21,21.7,-22.8,44.5,14.1833,0.208333,252,-10,38000,6000,275,15,18,3,21
2873,550,Waskaganish,Pessiere a mousses,Basses-terres de la baie James,Plaine de Waskaganish,46,51.5,-78.48333333,2,Fen,Fen,Fen uniforme,HerbacE,Caricaie,Caricaie de Carex exilis a Sphagnum,278,89,43.608,22,97,729,-16.3,15.05,104,8.33333,18.7266,1280.21,21.7,-22.8,44.5,14.1833,0.208333,252,-10,38000,6000,285,0,23,6,29
2874,550,Waskaganish,Pessiere a mousses,Basses-terres de la baie James,Plaine de Waskaganish,46,51.5,-78.48333333,2,Fen,Fen a mares,Fen structurE,HerbacE,Caricaie,Caricaie de Carex exilis a Sphagnum,278,89,43.608,22,97,729,-16.3,15.05,104,8.33333,18.7266,1280.21,21.7,-22.8,44.5,14.1833,0.208333,252,-10,38000,6000,260,10,20,3,23
2877,552,Baie Chiyaske,Pessiere a mousses,Basses-terres de la baie James,Plaine de la basse Harricana,46,51.43333333,-79.5,2,Fen,Fen a mares,Fen structurE,HerbacE,Caricaie,Caricaie de Carex exilis a Scorpidium scorpioides,265,86,43.3927,21,95,692,-16.7667,14.5667,96,9.19167,20.4714,1283.43,21.4,-23.5,44.9,13.8667,-0.0291666,245,-15.7167,10500,3500,125,34,21,4,25
2878,552,Baie Chiyaske,Pessiere a mousses,Basses-terres de la baie James,Plaine de la basse Harricana,46,51.43333333,-79.5,2,Fen,Fen,Fen uniforme,Lande arborEe,Pessiere,Pessiere de Picea mariana a Chamaedaphne calyculata et Sphagnum fuscum,265,86,43.3927,21,95,692,-16.7667,14.5667,96,9.19167,20.4714,1283.43,21.4,-23.5,44.9,13.8667,-0.0291666,245,-15.7167,10500,3500,80,0,14,5,19
2879,553,PEninsule Ministikawatin,Pessiere a mousses,Basses-terres de la baie James,Plaine de la basse Harricana,46,51.26666667,-79.23333333,2,Fen,Fen,Fen uniforme,Lande arborEe,Pessiere,Pessiere de Picea mariana a Sphagnum warnstorfii,275,92,42.7831,22,97,720,-16.35,15.3167,102,8.88333,19.697,1297.48,22.1,-23,45.1,14.4167,0.425,250,-15.3667,14500,10000,85,2,28,7,35
2880,553,PEninsule Ministikawatin,Pessiere a mousses,Basses-terres de la baie James,Plaine de la basse Harricana,46,51.26666667,-79.23333333,2,Fen,Fen a mares,Fen structurE,HerbacE,Caricaie,Caricaie de Carex exilis a Scorpidium scorpioides,275,92,42.7831,22,97,720,-16.35,15.3167,102,8.88333,19.697,1297.48,22.1,-23,45.1,14.4167,0.425,250,-15.3667,14500,10000,55,35,28,4,32
2881,553,PEninsule Ministikawatin,Pessiere a mousses,Basses-terres de la baie James,Plaine de la basse Harricana,46,51.26666667,-79.23333333,2,Bog,Bog,Bog uniforme,Lande arborEe,Pessiere,Pessiere de Picea mariana a Sphagnum fuscum,275,92,42.7831,22,97,720,-16.35,15.3167,102,8.88333,19.697,1297.48,22.1,-23,45.1,14.4167,0.425,250,-15.3667,14500,10000,100,0,17,3,20
2882,553,PEninsule Ministikawatin,Pessiere a mousses,Basses-terres de la baie James,Plaine de la basse Harricana,46,51.26666667,-79.23333333,2,Fen,Fen a mares,Fen structurE,HerbacE,Caricaie,Caricaie de Carex limosa a Sphagnum warnstofii,275,92,42.7831,22,97,720,-16.35,15.3167,102,8.88333,19.697,1297.48,22.1,-23,45.1,14.4167,0.425,250,-15.3667,14500,10000,50,45,19,3,22
2891,559,Asuwapamatikunan,Pessiere a mousses,Basses-terres de la baie James,Plaine de la basse Harricana,76,50.73333333,-79.4,2,Fen,Fen,Fen uniforme,HerbacE,Herbacaie,Herbacaie de Trichophorum cespitosum a Scorpidium scorpioides,289,101,40.8972,25,103,760,-16.3833,15.6167,112,10.1333,21.8391,1304.94,22.9,-23.5,46.4,14.6333,0.558333,269,-9.38333,2600,880,140,1,18,2,20
2892,559,Asuwapamatikunan,Pessiere a mousses,Basses-terres de la baie James,Plaine de la basse Harricana,76,50.73333333,-79.4,2,Bog,Bog,Bog uniforme,Lande arborEe,Pessiere,Pessiere de Picea mariana a Sphagnum fuscum,289,101,40.8972,25,103,760,-16.3833,15.6167,112,10.1333,21.8391,1304.94,22.9,-23.5,46.4,14.6333,0.558333,269,-9.38333,2600,880,130,0,18,5,23
2893,559,Asuwapamatikunan,Pessiere a mousses,Basses-terres de la baie James,Plaine de la basse Harricana,76,50.73333333,-79.4,2,Fen,Fen a mares,Fen structurE,HerbacE,Herbacaie,Herbacaie de Trichophorum cespitosum a Scorpidium scorpioides,289,101,40.8972,25,103,760,-16.3833,15.6167,112,10.1333,21.8391,1304.94,22.9,-23.5,46.4,14.6333,0.558333,269,-9.38333,2600,880,120,25,21,3,24
2894,560,Lac Sesitinikashish,Pessiere a mousses,Basses-terres de l'Abitibi,DEpression de Matagami,259,50.11666667,-78.23333333,2,Fen,Fen a mares,Fen structurE,HerbacE,Caricaie,Caricaie de Carex exilis a Dasiphora fruticosa,321,124,37.1854,30,114,870,-16.6833,14.9833,137,10.9417,23.2801,1286.54,22.6,-24.4,47,13.8667,0.0208332,307,-9.58333,1400,60,300,25,34,6,40
2895,561,Ouest Lac Lucie,Pessiere a mousses,Basses-terres de l'Abitibi,Plaine de la Turgeon,228,50.41666667,-78.53333333,2,Bog,Bog,Bog uniforme,HerbacE,Caricaie,Caricaie de Carex limosa a Sphagnum rubellum,314,118,38.3464,28,112,846,-16.6167,14.8833,129,10.175,22.2162,1281.96,22.1,-23.7,45.8,13.7667,-0.0708333,297,-15.4667,165,40,220,0,14,4,18
2896,561,Ouest Lac Lucie,Pessiere a mousses,Basses-terres de l'Abitibi,Plaine de la Turgeon,228,50.41666667,-78.53333333,2,Fen,Fen,Fen uniforme,Lande arborEe,MElEzin,MElEzin a Chamaedaphne calyculata et Sphagnum warnstorfii,314,118,38.3464,28,112,846,-16.6167,14.8833,129,10.175,22.2162,1281.96,22.1,-23.7,45.8,13.7667,-0.0708333,297,-15.4667,165,40,180,2,33,4,37
2897,561,Ouest Lac Lucie,Pessiere a mousses,Basses-terres de l'Abitibi,Plaine de la Turgeon,228,50.41666667,-78.53333333,2,Bog,Bog a mares,Bog structurE,HerbacE,Caricaie,Caricaie de Carex limosa a Sphagnum,314,118,38.3464,28,112,846,-16.6167,14.8833,129,10.175,22.2162,1281.96,22.1,-23.7,45.8,13.7667,-0.0708333,297,-15.4667,165,40,280,10,14,4,18
2898,561,Ouest Lac Lucie,Pessiere a mousses,Basses-terres de l'Abitibi,Plaine de la Turgeon,228,50.41666667,-78.53333333,2,Bog,Bog a mares,Bog structurE,Lande arborEe,MElEzin,MElEzin a Andromeda polifolia var. latifolia et Sphagnum,314,118,38.3464,28,112,846,-16.6167,14.8833,129,10.175,22.2162,1281.96,22.1,-23.7,45.8,13.7667,-0.0708333,297,-15.4667,165,40,300,10,19,4,23
2899,562,Lac Pimapuwesu,Pessiere a mousses,Basses-terres de l'Abitibi,Plaine de la Turgeon,198,50.55,-78.41666667,2,Bog,Bog,Bog uniforme,HerbacE,Herbacaie,Herbacaie de Trichophorum cespitosum a Sphagnum rubellum,310,115,38.9333,28,110,835,-16.5,14.7833,127,9.80833,21.652,1272.06,21.8,-23.5,45.3,13.7,-0.0458334,292,-15.3333,85,1,300,2,17,3,20
2900,562,Lac Pimapuwesu,Pessiere a mousses,Basses-terres de l'Abitibi,Plaine de la Turgeon,198,50.55,-78.41666667,2,Fen,Fen,Fen uniforme,Lande arborEe,MElEzin,MElEzin a Andromeda polifolia var. latifolia et Sphagnum,310,115,38.9333,28,110,835,-16.5,14.7833,127,9.80833,21.652,1272.06,21.8,-23.5,45.3,13.7,-0.0458334,292,-15.3333,85,1,300,20,18,8,26
2901,562,Lac Pimapuwesu,Pessiere a mousses,Basses-terres de l'Abitibi,Plaine de la Turgeon,198,50.55,-78.41666667,2,Fen,Fen,Fen uniforme,Lande arborEe,Pessiere,Pessiere de Picea mariana a Pleurozium schreberi et Sphagnum,310,115,38.9333,28,110,835,-16.5,14.7833,127,9.80833,21.652,1272.06,21.8,-23.5,45.3,13.7,-0.0458334,292,-15.3333,85,1,65,0,15,5,20
2902,563,Lac Carheil 2,Pessiere a mousses,Basses-terres de l'Abitibi,Plaine de la Turgeon,228,49.75,-79.16666667,2,Fen,Fen,Fen uniforme,Arbustif,Ericacaie,Ericacaie de Andromeda polifolia var. latifolia a Menyanthes trifoliata et Sphagnum,320,112,39.438,31,113,847,-16.8333,15.1667,137,11.6833,24.2897,1303.96,23,-25.1,48.1,14.1,0.133333,295,-9.53333,4200,300,210,0,18,4,22
2903,564,Ontario II,Pessiere a mousses,Basses-terres de la baie James,Plaine de la basse Harricana,259,50.4,-79.71666667,2,Bog,Bog,Bog uniforme,HerbacE,Herbacaie,Herbacaie de Trichophorum cespitosum a Sphagnum rubellum,299,108,39.3582,29,109,799,-17.3333,14.7833,126,11.0917,23.2043,1308.49,22.5,-25.3,47.8,13.7833,-0.345833,282,-10.15,350,20,300,1,13,2,15
2904,565,Riviere Turgeon,Pessiere a mousses,Basses-terres de l'Abitibi,Plaine de la Turgeon,259,49.93333333,-79.43333333,2,Fen,Fen,Fen uniforme,HerbacE,Herbacaie,Herbacaie de Trichophorum cespitosum a Carex exilis,313,109,39.5108,30,110,832,-16.9,15.05,134,11.4083,23.817,1299.58,22.8,-25.1,47.9,13.9667,0.0458334,292,-9.58333,1200,120,280,1,35,3,38
2905,565,Riviere Turgeon,Pessiere a mousses,Basses-terres de l'Abitibi,Plaine de la Turgeon,259,49.93333333,-79.43333333,2,Fen,Fen,Fen uniforme,HerbacE,Caricaie,Caricaie de Carex exilis a Scorpidium scorpioides,313,109,39.5108,30,110,832,-16.9,15.05,134,11.4083,23.817,1299.58,22.8,-25.1,47.9,13.9667,0.0458334,292,-9.58333,1200,120,300,30,24,5,29
2917,570,Lac Caminsanane,Pessiere a mousses,Hautes-terres de Mistassini,Plateau de la haute Rupert,320,50.46666667,-76.05,2,Bog,Bog,Bog uniforme,HerbacE,Caricaie,Caricaie de Carex oligosperma a Sphagnum,343,118,39.5289,35,118,908,-17.6833,14.0333,147,10.8083,23.0455,1283.26,21.4,-25.5,46.9,12.8,-0.9125,323,-10.2,9.5,8,55,0,9,7,16
2918,570,Lac Caminsanane,Pessiere a mousses,Hautes-terres de Mistassini,Plateau de la haute Rupert,320,50.46666667,-76.05,2,Bog,Bog a mares,Bog structurE,HerbacE,Herbacaie,Herbacaie de Trichophorum cespitosum a Sphagnum,343,118,39.5289,35,118,908,-17.6833,14.0333,147,10.8083,23.0455,1283.26,21.4,-25.5,46.9,12.8,-0.9125,323,-10.2,9.5,8,295,20,18,5,23
2930,577,Lac Soscuminga est III,Pessiere a mousses,Basses-terres de l'Abitibi,DEpression de Matagami,259,50.2,-77.28333333,2,Fen,Fen,Fen uniforme,HerbacE,Caricaie,Caricaie de Carex limosa a Sphagnum recurvum,326,122,38.1211,30,111,880,-16.8833,14.5667,136,11.2,23.7792,1278.48,22.3,-24.8,47.1,13.4667,-0.15,313,-9.53333,187,1,80,0,19,7,26
2932,579,Sud Lac Poli,Pessiere a mousses,Basses-terres de l'Abitibi,DEpression de Matagami,259,50.11666667,-78.01666667,2,Bog,Bog,Bog uniforme,HerbacE,Caricaie,Caricaie de Carex oligosperma a Trichophorum cespitosum et Sphagnum rubellum,323,130,35.9558,32,114,882,-16.9667,15.1,141,11.4333,23.8194,1305.17,23.1,-24.9,48,13.9333,-0.0166667,310,-9.75,4900,48,300,1,20,8,28
2935,581,Lac des Cygnes,Pessiere a mousses,Laurentides centrales,DEpression du lac Manouane,259,49.898654,-72.925115,2,Bog,Bog a mares,Bog structurE,HerbacE,Caricaie,Caricaie de Carex oligosperma a Sphagnum,348,158,28.7397,51,123,1013,-17.7667,14.65,213,12.075,24.5427,1311.53,22.5,-26.7,49.2,13.2167,-0.6375,341,-10.1,6,0.3,220,3,15,7,22
2939,584,Nord Lac aux Oeufs,Pessiere a lichens,Plateau central du Nord-du-QuEbec,DEpression du lac Bienville,411,54.7,-72.45,2,Fen,Fen a mares,Fen structurE,HerbacE,Caricaie,Caricaie de Carex oligosperma a Trichophorum cespitosum et Sphagnum lindbergii,288,90,45.0761,29,101,699,-21.25,12,108,8.88333,18.9007,1356.84,18.3,-28.7,47,10.7333,-4.025,265,-15,25,2,280,0,13,7,20
2940,584,Nord Lac aux Oeufs,Pessiere a lichens,Plateau central du Nord-du-QuEbec,DEpression du lac Bienville,411,54.7,-72.45,2,Fen,Fen a mares,Fen structurE,HerbacE,Caricaie,Caricaie de Carex exilis a Sphagnum,288,90,45.0761,29,101,699,-21.25,12,108,8.88333,18.9007,1356.84,18.3,-28.7,47,10.7333,-4.025,265,-15,25,2,100,2,22,8,30
2941,584,Nord Lac aux Oeufs,Pessiere a lichens,Plateau central du Nord-du-QuEbec,DEpression du lac Bienville,411,54.7,-72.45,2,Bog,Bog,Bog uniforme,HerbacE,Caricaie,Caricaie de Carex oligosperma a Sphagnum,288,90,45.0761,29,101,699,-21.25,12,108,8.88333,18.9007,1356.84,18.3,-28.7,47,10.7333,-4.025,265,-15,25,2,75,0,17,11,28
2945,586,Nord Lac Billet,Pessiere a lichens,Plateau central du Nord-du-QuEbec,DEpression du lac Bienville,411,54.38333333,-73.46666667,2,Bog,Bog,Bog uniforme,Lande arborEe,Pessiere,Pessiere de Picea mariana a Chamaedaphne calyculata et Sphagnum fuscum,293,92,44.2563,29,103,724,-20.7,12.0167,116,8.625,18.7908,1334.86,18,-27.9,45.9,10.8,-3.67083,270,-14.4667,150,60,80,0,15,5,20
2946,586,Nord Lac Billet,Pessiere a lichens,Plateau central du Nord-du-QuEbec,DEpression du lac Bienville,411,54.38333333,-73.46666667,2,Fen,Fen a mares,Fen structurE,Lande arborEe,Pessiere,Pessiere de Picea mariana a Betula michauxii et Sphagnum,293,92,44.2563,29,103,724,-20.7,12.0167,116,8.625,18.7908,1334.86,18,-27.9,45.9,10.8,-3.67083,270,-14.4667,150,60,80,35,23,8,31
2947,586,Nord Lac Billet,Pessiere a lichens,Plateau central du Nord-du-QuEbec,DEpression du lac Bienville,411,54.38333333,-73.46666667,2,Fen,Fen,Fen uniforme,HerbacE,Caricaie,Caricaie de Carex oligosperma a Sphagnum,293,92,44.2563,29,103,724,-20.7,12.0167,116,8.625,18.7908,1334.86,18,-27.9,45.9,10.8,-3.67083,270,-14.4667,150,60,170,0,16,9,25
2956,589,Marais Mistaschakw,Pessiere a lichens,Collines de la Grande Riviere,DEpression de la Grande Riviere,351,54.66666667,-74.08333333,2,Bog,Bog,Bog uniforme,Arbustif,Ericacaie,Ericacaie de Chamaedaphne calyculata a Sphagnum rubellum,282,90,44.11,28,99,700,-20.4833,12.35,112,8.39167,18.3625,1343.02,18.4,-27.3,45.7,11.05,-3.40417,256,-14.4333,4055,3100,90,0,13,7,20
2957,589,Marais Mistaschakw,Pessiere a lichens,Collines de la Grande Riviere,DEpression de la Grande Riviere,351,54.66666667,-74.08333333,2,Fen,Fen a mares,Fen structurE,Lande arborEe,MElEzin,MElEzin a Carex chordorrhiza et Sphagnum,282,90,44.11,28,99,700,-20.4833,12.35,112,8.39167,18.3625,1343.02,18.4,-27.3,45.7,11.05,-3.40417,256,-14.4333,4055,3100,90,20,31,9,40
2960,589,Marais Mistaschakw,Pessiere a lichens,Collines de la Grande Riviere,DEpression de la Grande Riviere,351,54.66666667,-74.08333333,2,Bog,Bog,Bog uniforme,Arbustif,Ericacaie,Ericacaie de Chamaedaphne calyculata a Carex oligosperma et Sphagnum,282,90,44.11,28,99,700,-20.4833,12.35,112,8.39167,18.3625,1343.02,18.4,-27.3,45.7,11.05,-3.40417,256,-14.4333,4055,3100,55,0,13,6,19
2961,591,Nutimesanu,Pessiere a mousses,Basses-terres de la baie James,Plaine de Waskaganish,107,51.45,-78.01666667,2,Bog,Bog,Bog uniforme,HerbacE,Herbacaie,Herbacaie de Trichophorum cespitosum a Sphagnum,289,96,42.417,24,100,763,-16.9333,15.0333,111,9.46667,20.5797,1306.26,22.2,-23.8,46,13.95,0.0166667,264,-10.1667,7200,1400,230,0,15,2,17
2962,591,Nutimesanu,Pessiere a mousses,Basses-terres de la baie James,Plaine de Waskaganish,107,51.45,-78.01666667,2,Fen,Fen,Fen uniforme,Lande arborEe,Pessiere,Pessiere de Picea mariana a Chamaedaphne calyculata et Sphagnum fuscum,289,96,42.417,24,100,763,-16.9333,15.0333,111,9.46667,20.5797,1306.26,22.2,-23.8,46,13.95,0.0166667,264,-10.1667,7200,1400,295,0,11,3,14
2964,593,Riviere Kitchigama nord,Pessiere a mousses,Basses-terres de la baie James,Plaine de Waskaganish,46,51.05,-78.75,2,Fen,Fen,Fen uniforme,Lande arborEe,MElEzin,MElEzin a Carex limosa et Calliergon stramineum,285,99,41.0236,24,100,755,-15.8333,15.2167,110,8.33333,18.9825,1268.41,21.7,-22.2,43.9,14.2833,0.516667,262,-14.8833,500,80,130,0,26,7,33
2965,593,Riviere Kitchigama nord,Pessiere a mousses,Basses-terres de la baie James,Plaine de Waskaganish,46,51.05,-78.75,2,Fen,Fen,Fen uniforme,HerbacE,Herbacaie,Herbacaie de Trichophorum a Scorpidium scorpioides,285,99,41.0236,24,100,755,-15.8333,15.2167,110,8.33333,18.9825,1268.41,21.7,-22.2,43.9,14.2833,0.516667,262,-14.8833,500,80,110,0,21,1,22
2966,594,Riviere Octave,Pessiere a mousses,Basses-terres de la baie James,Plaine de la basse Harricana,46,51.33333333,-79.08333333,2,Fen,Fen,Fen uniforme,HerbacE,Herbacaie,Herbacaie de Menyanthes trifoliata,272,89,43.4019,21,96,712,-16,14.6167,100,8.34167,19.2204,1254.14,21,-22.4,43.4,13.8667,0.304167,248,-14.9833,6500,15,175,0,19,2,21
2967,594,Riviere Octave,Pessiere a mousses,Basses-terres de la baie James,Plaine de la basse Harricana,46,51.33333333,-79.08333333,2,Bog,Bog,Bog uniforme,Lande arborEe,Pessiere,Pessiere de Picea mariana a Rhododendron groenlandicum et Sphagnum fuscum,272,89,43.4019,21,96,712,-16,14.6167,100,8.34167,19.2204,1254.14,21,-22.4,43.4,13.8667,0.304167,248,-14.9833,6500,15,70,1,17,7,24
2969,554,Pointe de la consolation,Pessiere a mousses,Basses-terres de la baie James,Plaine de la basse Harricana,15,51.630307,-79.276892,2,Fen,Fen a mares,Fen structurE,HerbacE,Herbacaie,Herbacaie de Trichophorum cespitosum a Menyanthes trifoliata,264,82,44.5614,20,93,688,-16.6,13.9333,94,8.75,20.0688,1254.6,20.5,-23.1,43.6,13.4333,-0.283333,241,-15.7667,30,10,50,0,18,2,20
2972,596,Riviere Harricana est,Pessiere a mousses,Basses-terres de la baie James,Plaine de la basse Harricana,168,50.45,-78.95,2,Bog,Bog a mares,Bog structurE,Arbustif,Ericacaie,Ericacaie de Chamaedaphne calyculata a Trichophorum cespitosum et Sphagnum,303,108,40.0427,27,109,806,-16.45,15.1167,123,10.325,22.397,1286.1,22.4,-23.7,46.1,14.0833,0.2625,285,-9.48333,700,20,300,1,16,3,19
2973,596,Riviere Harricana est,Pessiere a mousses,Basses-terres de la baie James,Plaine de la basse Harricana,168,50.45,-78.95,2,Bog,Bog,Bog uniforme,Lande arborEe,Pessiere,Pessiere de Picea mariana a Chamaedaphne calyculata et Sphagnum,303,108,40.0427,27,109,806,-16.45,15.1167,123,10.325,22.397,1286.1,22.4,-23.7,46.1,14.0833,0.2625,285,-9.48333,700,20,270,0,15,3,18
2974,597,Lac Maurice,Pessiere a mousses,Basses-terres de l'Abitibi,Plaine de la Turgeon,289,50.441466,-77.978168,2,Bog,Bog,Bog uniforme,Arbustif,Pessiere,Pessiere de Picea mariana a Sphagnum,318,123,37.4405,29,111,862,-16.7833,14.6,133,10.3667,22.5853,1275.8,21.8,-24.1,45.9,13.5,-0.241667,303,-15.6,10,0.5,280,0,14,5,19
2975,597,Lac Maurice,Pessiere a mousses,Basses-terres de l'Abitibi,Plaine de la Turgeon,289,50.441466,-77.978168,2,Fen,Fen,Fen uniforme,HerbacE,Herbacaie,Herbacaie de Trichophorum cespitosum a Sphagnum,318,123,37.4405,29,111,862,-16.7833,14.6,133,10.3667,22.5853,1275.8,21.8,-24.1,45.9,13.5,-0.241667,303,-15.6,10,0.5,220,0,27,4,31
2976,598,Papakamistikw,Pessiere a mousses,Basses-terres de la baie James,Plaine de Waskaganish,107,50.86645,-78.818644,2,Fen,Fen,Fen uniforme,HerbacE,Herbacaie,Herbacaie de Trichophorum cespitosum et Rhynchospora alba a Sphagnum,293,103,40.3812,25,104,776,-16.1667,15.3667,115,9.125,20.3229,1287.51,22.2,-22.7,44.9,14.3,0.420833,271,-15.1167,1480,1200,55,0,16,4,20
2977,598,Papakamistikw,Pessiere a mousses,Basses-terres de la baie James,Plaine de Waskaganish,107,50.86645,-78.818644,2,Bog,Bog a mares,Bog structurE,HerbacE,Herbacaie,Herbacaie de Trichophorum cespitosum et Rhynchospora alba a Sphagnum,293,103,40.3812,25,104,776,-16.1667,15.3667,115,9.125,20.3229,1287.51,22.2,-22.7,44.9,14.3,0.420833,271,-15.1167,1480,1200,180,0,17,3,20
2978,599,Lac Grasset,Pessiere a mousses,Basses-terres de l'Abitibi,DEpression de Matagami,289,49.98333333,-78.21666667,2,Bog,Bog a mares,Bog structurE,Arbustif,Ericacaie,Ericacaie de Chamaedaphne calyculata et Andromeda var. polifolia a Sphagnum,322,128,36.3679,31,114,877,-16.55,15.3333,139,11.275,23.7368,1295.4,23.2,-24.3,47.5,14.2167,0.270833,307,-9.4,5800,970,300,1,11,6,17
2979,599,Lac Grasset,Pessiere a mousses,Basses-terres de l'Abitibi,DEpression de Matagami,289,49.98333333,-78.21666667,2,Bog,Bog,Bog uniforme,Arbustif,Ericacaie,Ericacaie de Chamaedaphne calyculata a Carex oligosperma et Sphagnum,322,128,36.3679,31,114,877,-16.55,15.3333,139,11.275,23.7368,1295.4,23.2,-24.3,47.5,14.2167,0.270833,307,-9.4,5800,970,240,0,12,3,15
2980,600,Lac des Nogeau,Pessiere a mousses,Basses-terres de la baie James,Plaine de la basse Harricana,168,50.56666667,-78.93333333,2,Bog,Bog,Bog uniforme,Arbustif,Ericacaie,Ericacaie de Chamaedaphne calyculata et Andromeda var. polifolia a Sphagnum,298,108,39.797,26,106,796,-16.3833,15.4833,120,9.91667,21.6049,1297.98,22.6,-23.3,45.9,14.4,0.416667,281,-15.2167,4000,1000,300,0,18,3,21
2981,600,Lac des Nogeau,Pessiere a mousses,Basses-terres de la baie James,Plaine de la basse Harricana,168,50.56666667,-78.93333333,2,Bog,Bog,Bog uniforme,Arbustif,Ericacaie,Ericacaie de Chamaedaphne calyculata a Rhynchospora alba et Sphagnum,298,108,39.797,26,106,796,-16.3833,15.4833,120,9.91667,21.6049,1297.98,22.6,-23.3,45.9,14.4,0.416667,281,-15.2167,4000,1000,300,2,16,3,19
2982,600,Lac des Nogeau,Pessiere a mousses,Basses-terres de la baie James,Plaine de la basse Harricana,168,50.56666667,-78.93333333,2,Bog,Bog a mares,Bog structurE,Lande arborEe,Pessiere,Pessiere de Picea mariana a Sphagnum et Cladina,298,108,39.797,26,106,796,-16.3833,15.4833,120,9.91667,21.6049,1297.98,22.6,-23.3,45.9,14.4,0.416667,281,-15.2167,4000,1000,300,0,11,2,13
2983,601,Est Lac Lucie,Pessiere a mousses,Basses-terres de l'Abitibi,Plaine de la Turgeon,259,50.429159,-78.503601,2,Fen,Fen,Fen uniforme,Arborescent,Pessiere,Pessiere de Picea mariana a Rhododendron groenlandicum et Sphagnum,313,117,38.4605,28,112,845,-16.65,14.6833,129,10.1333,22.1736,1274.4,21.9,-23.8,45.7,13.6,-0.175,297,-15.5,30,10,180,0,8,6,14
2984,602,Lac Montreau,Pessiere a mousses,Basses-terres de l'Abitibi,Plaine de la Turgeon,289,50.340805,-77.945852,2,Bog,Bog,Bog uniforme,Arbustif,Ericacaie,Ericacaie de Chamaedaphne calyculata a Trichophorum cespitosum et Sphagnum,321,127,36.574,30,111,870,-16.8333,14.65,136,10.9,23.3906,1281.73,22.2,-24.4,46.6,13.5333,-0.183333,304,-15.6167,15,7,300,0,13,3,16
2985,602,Lac Montreau,Pessiere a mousses,Basses-terres de l'Abitibi,Plaine de la Turgeon,289,50.340805,-77.945852,2,Fen,Fen,Fen uniforme,Arbustif,Ericacaie,Ericacaie de Chamaedaphne calyculata a Carex oligosperma et Sphagnum,321,127,36.574,30,111,870,-16.8333,14.65,136,10.9,23.3906,1281.73,22.2,-24.4,46.6,13.5333,-0.183333,304,-15.6167,15,7,260,5,16,6,22
2986,603,Mines Selbaie,Pessiere a mousses,Basses-terres de l'Abitibi,Plaine de la Turgeon,289,49.71666667,-78.88333333,2,Fen,Fen,Fen uniforme,HerbacE,Caricaie,Caricaie de Carex oligosperma et Carex rostrata a Sphagnum,324,114,39.7591,30,115,857,-16.7667,14.9,136,11.7083,24.4433,1287.99,22.9,-25,47.9,13.8333,0.0291667,300,-9.46667,840,32,95,15,8,4,12
2987,604,Riviere Missisicabi,Pessiere a mousses,Basses-terres de la baie James,Plaine de la basse Harricana,107,50.975021,-79.013437,2,Fen,Fen,Fen uniforme,HerbacE,Herbacaie,Herbacaie de Trichophorum a Tomenthypnum nitens,289,98,41.8213,24,103,757,-16.0833,15.15,110,8.99167,20.206,1277.24,21.9,-22.6,44.5,14.2167,0.429167,266,-15.0333,415,100,100,0,23,3,26
2988,604,Riviere Missisicabi,Pessiere a mousses,Basses-terres de la baie James,Plaine de la basse Harricana,107,50.975021,-79.013437,2,Fen,Fen,Fen uniforme,HerbacE,Herbacaie,Herbacaie de Trichophorum a Dasiphora fructicosa,289,98,41.8213,24,103,757,-16.0833,15.15,110,8.99167,20.206,1277.24,21.9,-22.6,44.5,14.2167,0.429167,266,-15.0333,415,100,100,2,25,3,28
2995,608,Ouest Lac de la peupleraie,Pessiere a mousses,Basses-terres de l'Abitibi,DEpression de Matagami,289,50.418258,-77.069053,2,Fen,Fen a mares,Fen structurE,HerbacE,Herbacaie,Herbacaie de Trichophorum cespitosum a Sphagnum,326,118,38.936,30,111,873,-17.1,14.3333,135,10.8667,23.2691,1276.82,21.8,-24.9,46.7,13.2167,-0.391667,312,-9.75,18,2,300,5,36,8,44
3003,613,Riviere Pontax,Pessiere a mousses,Basses-terres de la baie James,Plaine de Waskaganish,228,51.83333333,-76.78333333,2,Bog,Bog,Bog uniforme,Lande arborEe,Pessiere,Pessiere de Picea mariana a Rhododendron groenlandicum et Sphagnum fuscum,305,103,41.3586,29,108,798,-18.1833,14.6667,123,10.6417,22.1701,1337.94,22.4,-25.6,48,13.3833,-0.7625,279,-11.0167,4000,700,70,0,9,3,12
3004,614,Lac Kawasekamich,Pessiere a mousses,Basses-terres de l'Abitibi,DEpression de Matagami,228,51.2,-77.36666667,2,Bog,Bog,Bog uniforme,Lande arborEe,Pessiere,Pessiere de Picea mariana a Rhododendron groenlandicum et Sphagnum,310,104,41.0409,27,107,823,-17.2833,14.05,124,9.93333,21.7836,1275.24,21.1,-24.5,45.6,12.9833,-0.641667,288,-10.3,110,0,65,0,16,5,21
3007,617,Ruisseau Swaluman,Pessiere a mousses,Basses-terres de la baie James,Plaine de Waskaganish,168,50.73333333,-78.73333333,2,Bog,Bog,Bog uniforme,Lande arborEe,Pessiere,Pessiere de Picea mariana a Rhododendron groenlandicum et Sphagnum,302,109,39.924,26,107,802,-16.5167,15.3,119,9.76667,21.2781,1299.84,22.5,-23.4,45.9,14.2167,0.258333,282,-15.4,830,450,93,0,6,4,10
3008,617,Ruisseau Swaluman,Pessiere a mousses,Basses-terres de la baie James,Plaine de Waskaganish,168,50.73333333,-78.73333333,2,Bog,Bog,Bog uniforme,Arbustif,Ericacaie,Ericacaie de Rhododendron groenlandicum a Sphagnum,302,109,39.924,26,107,802,-16.5167,15.3,119,9.76667,21.2781,1299.84,22.5,-23.4,45.9,14.2167,0.258333,282,-15.4,830,450,60,0,8,4,12
3009,617,Ruisseau Swaluman,Pessiere a mousses,Basses-terres de la baie James,Plaine de Waskaganish,168,50.73333333,-78.73333333,2,Bog,Bog,Bog uniforme,Arborescent,Pessiere,Pessiere de Picea mariana a Rhododendron groenlandicum et Sphagnum,302,109,39.924,26,107,802,-16.5167,15.3,119,9.76667,21.2781,1299.84,22.5,-23.4,45.9,14.2167,0.258333,282,-15.4,830,450,90,0,7,5,12
3010,618,Lac Manthet W,Pessiere a mousses,Basses-terres de l'Abitibi,Plaine de la Turgeon,289,50.034,-79.358915,2,Bog,Bog,Bog uniforme,Arborescent,Pessiere,Pessiere de Picea mariana a Rhododendron groenlandicum et Sphagnum,314,110,39.7186,30,112,834,-16.9333,14.7667,133,11.0833,23.4816,1288.22,22.3,-24.9,47.2,13.7167,-0.15,293,-9.71667,20,1,180,0,14,5,19
3015,622,Chimuchishisapich,Pessiere a mousses,Basses-terres de l'Abitibi,Plaine de la Turgeon,259,50.55,-78.56666667,2,Fen,Fen,Fen uniforme,Arborescent,Pessiere,Pessiere de Picea mariana a Rhododendron groenlandicum et Sphagnum,308,112,39.4981,27,110,827,-16.6,14.65,125,10.0083,21.9963,1273.91,21.8,-23.7,45.5,13.6333,-0.1125,290,-15.4667,3700,500,1,0,9,8,17
3016,623,Kamaschistin II,Pessiere a mousses,Basses-terres de l'Abitibi,Plaine de la Turgeon,168,50.618828,-78.540286,2,Fen,Fen,Fen uniforme,Lande arborEe,Pessiere,Pessiere de Picea mariana a Rhododendron groenlandicum et Sphagnum,309,112,39.6298,27,110,824,-16.5833,14.7,124,9.86667,21.7807,1276.01,21.8,-23.5,45.3,13.6833,-0.0833334,288,-15.4833,10,2.5,130,0,12,6,18
3017,624,Ontario I,Pessiere a mousses,Basses-terres de l'Abitibi,Plaine de la Turgeon,259,50.43333333,-79.53333333,2,Bog,Bog,Bog uniforme,Lande arborEe,Pessiere,"Pessiere de Picea mariana a Chamaedaphne calyculata, Sphagnum et Cladina",300,105,40.2336,28,108,797,-16.9833,14.75,124,10.7417,22.9033,1292.6,22.2,-24.7,46.9,13.7667,-0.195833,282,-9.9,275,20,47,0,15,5,20
3018,625,Lac Obamska,Pessiere a mousses,Basses-terres de l'Abitibi,Plaine de la Turgeon,259,50.425664,-78.231184,2,Fen,Fen,Fen uniforme,Arborescent,Pessiere,Pessiere de Picea mariana a Rhododendron groenlandicum et Pleurozium schreberi,316,120,37.8004,29,111,852,-16.6333,14.5167,131,10.2417,22.5092,1267.46,21.7,-23.8,45.5,13.4833,-0.204167,299,-15.4667,645,35,65,1,21,11,32
3019,626,Ouest Lac Salamandre,Pessiere a mousses,Basses-terres de l'Abitibi,Plaine de la Turgeon,289,50.21666667,-78.48333333,2,Bog,Bog,Bog uniforme,Arborescent,Pessiere,"Pessiere de Picea mariana a Rhododendron groenlandicum, Pleurozium schreberi et Sphagnum",319,120,38.0197,29,114,859,-16.9,14.6,134,10.8917,23.3226,1282.92,22.2,-24.5,46.7,13.5167,-0.2625,302,-9.88333,18000,1100,101,1,13,8,21
3020,626,Ouest Lac Salamandre,Pessiere a mousses,Basses-terres de l'Abitibi,Plaine de la Turgeon,289,50.21666667,-78.48333333,2,Bog,Bog,Bog uniforme,Lande arborEe,Pessiere,"Pessiere de Picea mariana a Rhododendron groenlandicum, Pleurozium schreberi et Sphagnum",319,120,38.0197,29,114,859,-16.9,14.6,134,10.8917,23.3226,1282.92,22.2,-24.5,46.7,13.5167,-0.2625,302,-9.88333,18000,1100,180,0,9,8,17
3021,626,Ouest Lac Salamandre,Pessiere a mousses,Basses-terres de l'Abitibi,Plaine de la Turgeon,289,50.21666667,-78.48333333,2,Fen,Fen,Fen uniforme,Arborescent,Pessiere,"Pessiere de Picea mariana a Rhododendron groenlandicum, Pleurozium schreberi et Sphagnum",319,120,38.0197,29,114,859,-16.9,14.6,134,10.8917,23.3226,1282.92,22.2,-24.5,46.7,13.5167,-0.2625,302,-9.88333,18000,1100,89,1,14,7,21
3022,627,Sud Lac Puibarau,Pessiere a lichens,Collines de la Grande Riviere,DEpression de la Grande Riviere,411,54.7194,-73.8228,2,Fen,Fen,Fen uniforme,Lande arborEe,Pessiere,"Pessiere de Picea mariana a Rhododendron groenlandicum, Pleurozium schreberi et Sphagnum",286,81,46.7337,26,101,692,-20.6,12.1,109,8.425,18.3952,1336.84,18.2,-27.6,45.8,10.8,-3.57083,260,-14.45,3,0.2,104,2,19,10,29
3024,629,Lac Dusaux,Pessiere a mousses,Basses-terres de l'Abitibi,Plaine de la Turgeon,228,50.75,-77.93333333,2,Fen,Fen,Fen uniforme,HerbacE,Herbacaie,Herbacaie de Trichophorum cespitosum a Dasiphora fructicosa,307,118,37.7192,28,108,835,-16.7,14.6,127,9.91667,21.8429,1273.87,21.7,-23.7,45.4,13.5667,-0.175,291,-15.5833,320,160,140,1,25,2,27
3025,630,Lac Lucie Sud,Pessiere a mousses,Basses-terres de l'Abitibi,Plaine de la Turgeon,259,50.387704,-78.426784,2,Bog,Bog,Bog uniforme,Arborescent,Pessiere,"Pessiere de Picea mariana a Rhododendron groenlandicum, Pleurozium schreberi et Sphagnum",312,117,38.2007,28,111,841,-16.6333,14.75,130,10.1667,22.2465,1276.55,21.9,-23.8,45.7,13.6833,-0.116667,295,-9.78333,220,0,52,0,6,4,10
3026,631,Lac Uchikuchasuw,Pessiere a lichens,Collines de la Grande Riviere,DEpression de la Grande Riviere,441,54.137103,-74.449922,2,Bog,Bog,Bog uniforme,Lande arborEe,Pessiere,"Pessiere de Picea mariana a Chamaedaphne calyculata, Rhododendron groenlandicum et Sphagnum fuscum",294,92,43.7407,28,102,739,-20.0333,12.5,119,8.76667,19.0995,1325.73,18.8,-27.1,45.9,11.1,-3.125,267,-13.75,10,4,45,1,18,7,25
3028,633,Lac HourE,Pessiere a mousses,Basses-terres de la baie James,Plaine de Waskaganish,259,51.21666667,-77.66666667,2,Fen,Fen,Fen uniforme,Lande arborEe,Pessiere,"Pessiere de Picea mariana a Chamaedaphne calyculata, Rhododendron groenlandicum et Sphagnum fuscum",305,103,40.8946,26,104,809,-17.3,14.3667,121,9.90833,21.6813,1289.69,21.5,-24.2,45.7,13.2333,-0.529167,283,-10.4167,40,0,85,0,14,4,18
3031,636,Lac Kanaaupscow,Pessiere a lichens,Collines de la Grande Riviere,DEpression de la Grande Riviere,168,54.027018,-76.322221,2,Fen,Fen,Fen uniforme,Lande arborEe,Pessiere,Pessiere de Picea mariana a Rhododendron groenlandicum et Sphagnum,279,80,47.7503,24,104,689,-18.6333,11.85,104,7.93333,18.3218,1263.09,17.7,-25.6,43.3,11.8333,-2.24167,242,-12.7333,6,0,125,0,11,4,15
3034,638,Sud Lac Lavau,Pessiere a mousses,Basses-terres de l'Abitibi,DEpression de Matagami,289,51.093391,-77.109111,2,Fen,Fen,Fen uniforme,Lande arborEe,Pessiere,"Pessiere de Picea mariana a Chamaedaphne calyculata, Rhododendron groenlandicum et Sphagnum fuscum",317,109,40.3453,29,109,838,-17.4167,14.0333,128,10.325,22.397,1279.24,21.3,-24.8,46.1,12.9333,-0.729167,296,-10.3333,77,1,55,0,17,8,25
