ID_Quadrat,ID_Site,SITES,Latitude,Longitude,Substratum,Habitat,bioclim_16,bioclim_17,bioclim_15,bioclim_14,bioclim_13,bioclim_12,bioclim_11,bioclim_10,bioclim_19,bioclim_2,bioclim_3,bioclim_4,bioclim_5,bioclim_6,bioclim_7,bioclim_8,bioclim_1,bioclim_18,bioclim_9,Thickness,Surface_water,Vas_Ric_Tot,Bry_Ric_Tot,Rich_tot
2640,408,Lac Atichikamis,53.61666667,-78.3,1,Fen,254,73,48.0835,21,95,641,-20.0667,12.9333,92,9.98333,20.6694,1356.27,20.3,-28,48.3,8.11667,-2.49167,218,-13.45,37,1,13,5,18
2642,410,Sud Lac Awisinaukamach,53.16666667,-78.43333333,1,Fen,251,76,46.4955,21,91,645,-19.6833,13.65,92,10.3917,21.1643,1367.23,21.3,-27.8,49.1,8.65,-1.92083,218,-12.8833,125,0,11,2,13
2643,411,Est Lac Kapwakami,53.08333333,-78.25,1,Bog,258,75,47.4274,21,96,657,-19.4167,13.35,93,9.9,20.7547,1340.68,20.5,-27.2,47.7,8.53333,-1.90833,222,-12.55,75,0,12,8,20
2665,429,Lac Kaskamikaw,53.160565,-78.159892,1,Bog,261,80,46.409,21,97,666,-19.7,13.4167,94,10.3167,21.2715,1357.12,21,-27.5,48.5,8.48333,-2.01667,223,-12.85,225,0,16,7,23
2666,429,Lac Kaskamikaw,53.160565,-78.159892,1,Bog,261,80,46.409,21,97,666,-19.7,13.4167,94,10.3167,21.2715,1357.12,21,-27.5,48.5,8.48333,-2.01667,223,-12.85,125,10,10,5,15
2667,430,Lac Pamichikamaw sud,53.120283,-78.241964,1,Fen,256,76,46.6977,21,95,655,-19.5167,13.3167,94,10.0667,20.9722,1343.47,20.6,-27.4,48,12.4333,-1.975,221,-12.6333,125,0,37,5,42
2668,430,Lac Pamichikamaw sud,53.120283,-78.241964,1,Fen,256,76,46.6977,21,95,655,-19.5167,13.3167,94,10.0667,20.9722,1343.47,20.6,-27.4,48,12.4333,-1.975,221,-12.6333,100,40,29,11,40
2669,431,Lac Pamichikamaw nord,53.137754,-78.264643,1,Fen,258,78,46.6412,21,96,658,-19.55,13.45,93,10.0833,20.9198,1350.42,20.8,-27.4,48.2,8.5,-1.94167,221,-12.6667,205,0,19,5,24
2671,433,Lac Wastawawmakw,53.71666667,-78.71666667,1,Bog,232,69,46.3318,21,82,598,-19.9667,12.4667,90,9.86667,20.5556,1337.29,19.7,-28.3,48,11.9333,-2.56667,204,-13.3667,60,0,16,11,27
2672,433,Lac Wastawawmakw,53.71666667,-78.71666667,1,Fen,232,69,46.3318,21,82,598,-19.9667,12.4667,90,9.86667,20.5556,1337.29,19.7,-28.3,48,11.9333,-2.56667,204,-13.3667,75,60,17,7,24
2674,434,Lac Yasinki,53.260054,-77.582507,1,Fen,279,86,46.8182,23,107,697,-19.45,13.6833,98,9.86667,20.7283,1354.06,20.8,-26.8,47.6,8.4,-1.875,234,-12.6833,120,2,31,6,37
2675,434,Lac Yasinki,53.260054,-77.582507,1,Bog,279,86,46.8182,23,107,697,-19.45,13.6833,98,9.86667,20.7283,1354.06,20.8,-26.8,47.6,8.4,-1.875,234,-12.6833,200,0,16,5,21
2676,434,Lac Yasinki,53.260054,-77.582507,1,Bog,279,86,46.8182,23,107,697,-19.45,13.6833,98,9.86667,20.7283,1354.06,20.8,-26.8,47.6,8.4,-1.875,234,-12.6833,150,0,14,6,20
2677,434,Lac Yasinki,53.260054,-77.582507,1,Bog,279,86,46.8182,23,107,697,-19.45,13.6833,98,9.86667,20.7283,1354.06,20.8,-26.8,47.6,8.4,-1.875,234,-12.6833,160,0,11,6,17
2679,436,Lac Mamikustataw est,53.795178,-78.212,1,Fen,254,74,47.9149,22,96,638,-20.2,13.2333,93,10.1333,20.7226,1372.73,20.8,-28.1,48.9,8.13333,-2.45833,217,-13.5833,90,0,26,11,37
2680,436,Lac Mamikustataw est,53.795178,-78.212,1,Fen,254,74,47.9149,22,96,638,-20.2,13.2333,93,10.1333,20.7226,1372.73,20.8,-28.1,48.9,8.13333,-2.45833,217,-13.5833,65,0,17,11,28
2681,437,Lac Anisupiskwakunikasich,53.46666667,-78.46666667,1,Fen,247,72,47.3498,21,90,629,-20,13.1333,92,10.3167,21.0544,1361.23,20.8,-28.2,49,12.3833,-2.29167,215,-13.2167,265,50,19,10,29
2682,437,Lac Anisupiskwakunikasich,53.46666667,-78.46666667,1,Fen,247,72,47.3498,21,90,629,-20,13.1333,92,10.3167,21.0544,1361.23,20.8,-28.2,49,12.3833,-2.29167,215,-13.2167,85,0,15,5,20
2685,439,Sakami I,53.718841,-76.018676,1,Fen,288,83,46.9094,27,107,716,-18.3833,12.1833,110,8.86667,20.1974,1253.9,18.4,-25.5,43.9,11.3833,-2.05,252,-12.0333,68,1,16,9,25
2686,440,Lac Shpogan,53.142787,-77.067178,1,Fen,289,89,46.1043,25,109,730,-19.2833,13.6333,106,10.0583,21.1754,1345.09,20.8,-26.7,47.5,8.23333,-1.85417,252,-12.5167,130,30,12,5,17
2690,442,Lac Kawapakamich,53.477759,-76.497835,1,Fen,291,87,47.0363,27,112,728,-18.9167,13.3,109,9.20833,20.0617,1314.13,19.8,-26.1,45.9,12.2167,-1.90417,251,-12.3333,115,0,12,11,23
2691,442,Lac Kawapakamich,53.477759,-76.497835,1,Bog,291,87,47.0363,27,112,728,-18.9167,13.3,109,9.20833,20.0617,1314.13,19.8,-26.1,45.9,12.2167,-1.90417,251,-12.3333,160,0,17,7,24
2692,442,Lac Kawapakamich,53.48333333,-76.5,1,Fen,291,87,47.0363,27,112,728,-18.9167,13.3,109,9.20833,20.0617,1314.13,19.8,-26.1,45.9,12.2167,-1.90417,251,-12.3333,131,0,10,6,16
2699,445,Lac Bonfait,53.5,-76.4,1,Fen,292,85,47.4423,27,112,725,-19,13.1,109,9.35833,20.3885,1307.91,19.7,-26.2,45.9,12,-2.0125,253,-12.3,80,2,15,11,26
2705,449,Baie Uchiskuputisakaw,53.3,-76.83333333,1,Bog,288,87,46.4554,26,109,722,-18.7667,13.1167,107,8.85,19.4506,1303.63,19.6,-25.9,45.5,8.55,-1.81667,248,-12.25,160,0,7,4,11
2706,449,Baie Uchiskuputisakaw,53.3,-76.83333333,1,Bog,288,87,46.4554,26,109,722,-18.7667,13.1167,107,8.85,19.4506,1303.63,19.6,-25.9,45.5,8.55,-1.81667,248,-12.25,145,0,11,6,17
2707,449,Baie Uchiskuputisakaw,53.3,-76.83333333,1,Bog,288,87,46.4554,26,109,722,-18.7667,13.1167,107,8.85,19.4506,1303.63,19.6,-25.9,45.5,8.55,-1.81667,248,-12.25,105,0,8,5,13
2710,451,Route Trans-Taiga,53.575814,-76.136014,1,Fen,293,84,47.0884,27,111,729,-19,12.8833,112,9.43333,20.5072,1300.8,19.7,-26.3,46,11.7833,-2.11667,254,-12.3167,105,5,5,2,7
2711,451,Route Trans-Taiga,53.575814,-76.136014,1,Fen,293,84,47.0884,27,111,729,-19,12.8833,112,9.43333,20.5072,1300.8,19.7,-26.3,46,11.7833,-2.11667,254,-12.3167,135,0,26,10,36
2725,459,Lac Wachiskw,53.638934,-73.157204,1,Bog,309,105,41.3884,32,108,780,-20.5167,12.6,130,9.675,20.3256,1346.36,19.3,-28.3,47.6,11.2,-3.25417,287,-13.8167,40,0,17,10,27
2726,459,Lac Wachiskw,53.638934,-73.157204,1,Bog,309,105,41.3884,32,108,780,-20.5167,12.6,130,9.675,20.3256,1346.36,19.3,-28.3,47.6,11.2,-3.25417,287,-13.8167,77,0,18,9,27
2727,459,Lac Wachiskw,53.638934,-73.157204,1,Bog,309,105,41.3884,32,108,780,-20.5167,12.6,130,9.675,20.3256,1346.36,19.3,-28.3,47.6,11.2,-3.25417,287,-13.8167,90,0,10,1,11
2750,472,Lac Chaumont,53.925573,-69.76553,1,Bog,316,117,41.4111,33,112,787,-21.8333,10.9167,119,9.89167,20.8246,1330.43,17.7,-29.8,47.5,10.15,-4.6875,295,-20.7667,87,5,30,9,39
2776,486,Lac Artau,50.71666667,-74.25,1,Fen,335,158,28.508,44,116,979,-17.9333,14.1167,222,11.2417,23.5674,1298.61,21.7,-26,47.7,12.8333,-0.9625,325,-10.5,200,35,13,4,17
2777,487,Lac Mesgouez,51.43333333,-75.03333333,1,Bog,322,124,34.9969,38,109,881,-17.9,14.2667,167,10.1583,21.6135,1301.45,21.3,-25.7,47,13.0667,-0.904167,305,-10.5833,150,0,14,4,18
2798,501,Confluent Pachistiwakanusich,52.744789,-75.967696,1,Fen,304,99,42.4066,31,110,783,-18.7,13.7833,125,10.1333,21.6063,1323.45,20.8,-26.1,46.9,12.45,-1.5,272,-11.7833,40,5,25,5,30
2799,501,Confluent Pachistiwakanusich,52.744789,-75.967696,1,Bog,304,99,42.4066,31,110,783,-18.7,13.7833,125,10.1333,21.6063,1323.45,20.8,-26.1,46.9,12.45,-1.5,272,-11.7833,155,0,11,6,17
2800,501,Confluent Pachistiwakanusich,52.744789,-75.967696,1,Bog,304,99,42.4066,31,110,783,-18.7,13.7833,125,10.1333,21.6063,1323.45,20.8,-26.1,46.9,12.45,-1.5,272,-11.7833,220,15,17,4,21
2809,510,Riviere Barou,52.08333333,-72.68333333,1,Bog,332,136,34.5134,44,115,894,-19.3167,13.7667,169,11.175,22.8996,1343.57,21.2,-27.6,48.8,12.2667,-1.97917,320,-12.2333,180,2,17,7,24
2810,511,Lac Baudeau II,51.851976,-73.220912,1,Bog,326,136,33.0053,41,114,902,-18.9667,13.5333,182,10.8667,22.6862,1318.99,20.8,-27.1,47.9,12.2,-1.81667,316,-11.7,175,10,15,3,18
2811,511,Lac Baudeau II,51.851976,-73.220912,1,Fen,326,136,33.0053,41,114,902,-18.9667,13.5333,182,10.8667,22.6862,1318.99,20.8,-27.1,47.9,12.2,-1.81667,316,-11.7,280,60,14,3,17
2812,512,Lac Baudeau,51.870048,-73.140382,1,Fen,326,139,32.5578,43,114,905,-19.0167,13.7333,181,11.05,22.8778,1328.98,21.1,-27.2,48.3,12.3333,-1.76667,318,-11.75,140,30,10,4,14
2813,512,Lac Baudeau,51.870048,-73.140382,1,Bog,326,139,32.5578,43,114,905,-19.0167,13.7333,181,11.05,22.8778,1328.98,21.1,-27.2,48.3,12.3333,-1.76667,318,-11.75,125,30,16,6,22
2835,522,Lac Clairambault,54.501554,-69.174709,1,Bog,301,120,38.6023,33,108,763,-21.9833,10.1333,120,9.40833,20.233,1311.4,16.9,-29.6,46.5,9.91667,-5.09583,278,-20.8833,60,10,23,9,32
2851,533,Riviere Perdue,51.252147,-72.51358,1,Bog,338,143,32.307,45,118,938,-18.75,13.9167,188,11.3833,23.2788,1322.11,21.5,-27.4,48.9,12.6,-1.50833,329,-11.2333,43,1,34,8,42
2855,537,Lac Kamisikamach est,52.756144,-77.031449,1,Bog,292,90,45.0803,26,110,748,-19.0167,13.85,112,9.875,20.966,1338.96,20.8,-26.3,47.1,12.5,-1.6625,256,-12.1667,64,0,11,7,18
2857,539,Lac 41,52.200398,-78.34373,1,Fen,268,74,48.0724,19,95,683,-18.0833,13.9333,95,9.825,21.129,1309.73,21,-25.5,46.5,9.38333,-0.8875,232,-11.15,50,0,13,6,19
2883,554,Pointe de la consolation,51.630307,-79.276892,1,Fen,264,82,44.5614,20,93,688,-16.6,13.9333,94,8.75,20.0688,1254.6,20.5,-23.1,43.6,13.4333,-0.283333,241,-15.7667,130,35,16,2,18
2885,556,Est Riviere Chenukamisu,51.8,-76.5,1,Bog,307,102,41.0548,30,108,807,-18.1667,14.5,127,10.6667,22.3152,1329.12,22.1,-25.7,47.8,13.2167,-0.808333,283,-10.8833,300,0,10,3,13
2886,556,Est Riviere Chenukamisu,51.8,-76.5,1,Bog,307,102,41.0548,30,108,807,-18.1667,14.5,127,10.6667,22.3152,1329.12,22.1,-25.7,47.8,13.2167,-0.808333,283,-10.8833,300,0,15,4,19
2887,556,Est Riviere Chenukamisu,51.8,-76.5,1,Bog,307,102,41.0548,30,108,807,-18.1667,14.5,127,10.6667,22.3152,1329.12,22.1,-25.7,47.8,13.2167,-0.808333,283,-10.8833,95,0,10,3,13
2911,568,Lac Montreuil,50.18333333,-77.7,1,Fen,320,126,36.459,31,111,875,-16.7833,14.8667,139,11.0167,23.3899,1285.8,22.5,-24.6,47.1,13.7167,-0.0583334,312,-9.61667,130,0,19,2,21
2912,568,Lac Montreuil,50.18333333,-77.7,1,Fen,320,126,36.459,31,111,875,-16.7833,14.8667,139,11.0167,23.3899,1285.8,22.5,-24.6,47.1,13.7167,-0.0583334,312,-9.61667,170,0,30,5,35
2913,568,Lac Montreuil,50.18333333,-77.7,1,Fen,320,126,36.459,31,111,875,-16.7833,14.8667,139,11.0167,23.3899,1285.8,22.5,-24.6,47.1,13.7167,-0.0583334,312,-9.61667,220,3,35,7,42
2914,569,Lac Gabrielle,49.78333333,-77.35,1,Fen,330,126,37.618,31,113,898,-16.55,14.8833,140,11.425,24.1543,1277.99,22.6,-24.7,47.3,13.7667,0.1375,321,-9.2,230,2,27,3,30
2915,569,Lac Gabrielle,49.78333333,-77.35,1,Fen,330,126,37.618,31,113,898,-16.55,14.8833,140,11.425,24.1543,1277.99,22.6,-24.7,47.3,13.7667,0.1375,321,-9.2,190,0,28,8,36
2916,569,Lac Gabrielle,49.78333333,-77.35,1,Bog,330,126,37.618,31,113,898,-16.55,14.8833,140,11.425,24.1543,1277.99,22.6,-24.7,47.3,13.7667,0.1375,321,-9.2,270,0,9,3,12
2919,571,Sud Lac Bouchier,50.01666667,-77.81666667,1,Fen,325,132,35.6023,32,112,892,-16.85,15.1167,143,11.5833,24.0818,1301.15,23.1,-25,48.1,13.95,0.05,316,-9.61667,235,15,17,8,25
2920,571,Sud Lac Bouchier,50.01666667,-77.81666667,1,Bog,325,132,35.6023,32,112,892,-16.85,15.1167,143,11.5833,24.0818,1301.15,23.1,-25,48.1,13.95,0.05,316,-9.61667,300,0,12,7,19
2921,571,Sud Lac Bouchier,50.01666667,-77.81666667,1,Bog,325,132,35.6023,32,112,892,-16.85,15.1167,143,11.5833,24.0818,1301.15,23.1,-25,48.1,13.95,0.05,316,-9.61667,220,20,22,8,30
2922,572,Lac Maicasagi,50.002565,-76.831174,1,Fen,332,118,39.4801,30,113,887,-16.9333,14.5167,136,11.3917,24.0839,1278.58,22.4,-24.9,47.3,13.4,-0.1875,318,-9.51667,300,30,25,5,30
2923,572,Lac Maicasagi,50.002565,-76.831174,1,Fen,332,118,39.4801,30,113,887,-16.9333,14.5167,136,11.3917,24.0839,1278.58,22.4,-24.9,47.3,13.4,-0.1875,318,-9.51667,215,0,19,13,32
2924,572,Lac Maicasagi,50.002565,-76.831174,1,Fen,332,118,39.4801,30,113,887,-16.9333,14.5167,136,11.3917,24.0839,1278.58,22.4,-24.9,47.3,13.4,-0.1875,318,-9.51667,300,1,22,4,26
2925,573,Lac de la tourbiere-BJ,50.137829,-77.15087,1,Fen,328,122,38.2963,30,112,885,-16.8667,14.4667,136,11.075,23.6645,1272.76,22,-24.8,46.8,13.3667,-0.195833,317,-9.5,300,25,34,14,48
2926,574,Lac Soscuminga est II,50.26666667,-77.31666667,1,Fen,324,120,38.1864,30,112,872,-16.95,14.5167,136,10.9583,23.3653,1278.01,22.1,-24.8,46.9,13.4167,-0.245833,312,-9.65,215,20,43,6,49
2927,574,Lac Soscuminga est II,50.26666667,-77.31666667,1,Fen,324,120,38.1864,30,112,872,-16.95,14.5167,136,10.9583,23.3653,1278.01,22.1,-24.8,46.9,13.4167,-0.245833,312,-9.65,220,0,36,9,45
2928,575,Lac Soscuminga nord,50.321037,-77.392413,1,Fen,319,123,37.0595,31,110,869,-16.9,14.5667,137,10.5,22.5806,1277.22,21.9,-24.6,46.5,13.5,-0.258333,309,-9.78333,300,0,41,7,48
2929,576,Riviere Chensagi,50.166142,-76.535691,1,Bog,336,119,39.7202,31,115,888,-17.0667,14.55,136,11.35,23.9958,1285.35,22.3,-25,47.3,13.4,-0.225,317,-9.61667,260,0,8,4,12
2931,578,Lac Soscuminga est,50.257709,-77.394363,1,Bog,320,122,37.4637,30,110,868,-16.8333,14.4,136,10.7083,23.0783,1268.52,21.8,-24.6,46.4,13.3667,-0.2625,308,-9.65,300,0,11,5,16
2970,555,Lac Dana,50.892491,-77.278071,1,Bog,316,114,39.1079,29,108,844,-17.2333,14.1667,129,10.225,22.2283,1275.76,21.4,-24.6,46,13.0833,-0.604167,296,-10.2,220,1,15,6,21
2971,555,Lac Dana,50.892491,-77.278071,1,Fen,316,114,39.1079,29,108,844,-17.2333,14.1667,129,10.225,22.2283,1275.76,21.4,-24.6,46,13.0833,-0.604167,296,-10.2,170,2,11,8,19
2989,605,Nord Lac Bouchier,50.16666667,-77.85,1,Fen,321,133,35.3315,32,112,886,-16.8167,14.9333,141,11.0917,23.4993,1290.72,22.6,-24.6,47.2,13.7833,-0.0458334,309,-9.66667,110,0,8,4,12
2990,605,Nord Lac Bouchier,50.16666667,-77.85,1,Bog,321,133,35.3315,32,112,886,-16.8167,14.9333,141,11.0917,23.4993,1290.72,22.6,-24.6,47.2,13.7833,-0.0458334,309,-9.66667,300,0,17,4,21
2991,606,Riviere Bell,49.549696,-77.497447,1,Bog,332,132,36.6767,32,113,909,-16.4333,14.85,142,11.9833,25.0697,1272.08,22.9,-24.9,47.8,13.7667,0.216667,322,-15.0667,210,0,10,5,15
2992,606,Riviere Bell,49.549696,-77.497447,1,Fen,332,132,36.6767,32,113,909,-16.4333,14.85,142,11.9833,25.0697,1272.08,22.9,-24.9,47.8,13.7667,0.216667,322,-15.0667,300,1,26,7,33
2993,607,Lac Opataouaga est,50.3937,-76.629455,1,Fen,327,116,39.229,31,110,875,-17.2,14.4833,135,11.1083,23.5346,1287.66,22.2,-25,47.2,13.3,-0.379167,312,-9.88333,260,0,31,4,35
2994,607,Lac Opataouaga est,50.3937,-76.629455,1,Fen,327,116,39.229,31,110,875,-17.2,14.4833,135,11.1083,23.5346,1287.66,22.2,-25,47.2,13.3,-0.379167,312,-9.88333,270,10,31,5,36
2996,609,Chensagi Lake II,50.092137,-76.735024,1,Fen,329,118,39.2482,30,112,880,-16.8333,14.5333,135,10.8333,23.2475,1272.48,21.9,-24.7,46.6,13.4167,-0.208334,314,-9.58333,300,10,37,7,44
2997,610,Chensagi Lake I,50.077677,-76.727417,1,Fen,332,117,39.5749,30,112,886,-16.85,14.5333,135,10.9417,23.4297,1273.35,22,-24.7,46.7,13.4167,-0.195833,317,-9.55,250,2,33,7,40
2998,610,Chensagi Lake I,50.077677,-76.727417,1,Fen,332,117,39.5749,30,112,886,-16.85,14.5333,135,10.9417,23.4297,1273.35,22,-24.7,46.7,13.4167,-0.195833,317,-9.55,130,17,14,4,18
2999,611,Lac au GoEland,49.76666667,-76.86666667,1,Fen,330,118,39.4864,30,112,880,-16.2333,15.4333,134,10.6917,22.8454,1281.44,22.7,-24.1,46.8,14.3167,0.4375,316,-9.05,250,15,24,4,28
3000,611,Lac au GoEland,49.76666667,-76.86666667,1,Bog,330,118,39.4864,30,112,880,-16.2333,15.4333,134,10.6917,22.8454,1281.44,22.7,-24.1,46.8,14.3167,0.4375,316,-9.05,200,0,11,4,15
3001,612,Lac Mistatikamkw nord,54.238846,-78.706052,1,Bog,235,71,46.3744,22,83,595,-20.5833,13.1,90,9.6,19.6319,1386.78,20.3,-28.6,48.9,12.3,-2.78333,205,-14.2833,295,10,15,5,20
3002,612,Lac Mistatikamkw nord,54.238846,-78.706052,1,Fen,235,71,46.3744,22,83,595,-20.5833,13.1,90,9.6,19.6319,1386.78,20.3,-28.6,48.9,12.3,-2.78333,205,-14.2833,225,2,17,2,19
3005,615,Lac Amiskw Kamamakatanikau,50.945846,-77.560419,1,Bog,317,111,39.9498,28,108,846,-17.35,14.1833,128,10.1583,22.1314,1281.84,21.4,-24.5,45.9,13.0333,-0.704167,296,-10.4167,76,2,13,3,16
3011,619,Nord Chensagi Lake,50.159909,-76.749484,1,Bog,332,119,39.2728,31,114,884,-16.9667,14.5333,136,11.1833,23.7943,1280.47,22.2,-24.8,47,13.4167,-0.2,314,-9.58333,70,0,16,8,24
3037,641,Nord Riviere Muskiki,50.465909,-77.270791,1,Fen,325,118,38.651,30,111,877,-17.1833,14.1833,136,10.7167,23.0963,1275.39,21.6,-24.8,46.4,13.0833,-0.525,312,-9.91667,40,0,10,6,16
3064,649,Riviere Cobin sud,54.3869,-79.1051,1,Fen,228,60,49.1885,19,79,564,-20.4,12.1167,84,9.075,19.2675,1348.57,18.7,-28.4,47.1,11.6667,-3.0125,201,-14.35,80,0,10,6,16
3066,649,Riviere Cobin sud,54.3869,-79.1051,1,Fen,228,60,49.1885,19,79,564,-20.4,12.1167,84,9.075,19.2675,1348.57,18.7,-28.4,47.1,11.6667,-3.0125,201,-14.35,120,0,15,10,25
2637,406,Riviere au Castor,53.38333333,-78.9,2,Fen,230,68,46.8447,20,80,596,-19.5833,12.3333,88,9.81667,20.7541,1319.04,19.2,-28.1,47.3,12,-2.29167,205,-12.8833,125,0,11,3,14
2638,406,Riviere au Castor,53.38333333,-78.9,2,Fen,230,68,46.8447,20,80,596,-19.5833,12.3333,88,9.81667,20.7541,1319.04,19.2,-28.1,47.3,12,-2.29167,205,-12.8833,75,0,8,2,10
2639,407,Lac Maggiolo II,53.3339,-68.7056,2,Fen,340,138,37.22,38,122,881,-21.5667,11.15,142,10.4333,21.9188,1319.83,18.3,-29.3,47.6,9.93333,-4.575,318,-20.1667,43,0,17,6,23
2646,412,Lac Mamikustataw Nord,53.845226,-78.311965,2,Bog,249,74,47.3699,22,92,631,-20.2667,13.15,92,10.05,20.5943,1374.04,20.6,-28.2,48.8,12.25,-2.5,216,-13.7,125,0,12,2,14
2647,413,Lac Lejeune W,53.034656,-75.002389,2,Bog,311,104,40.6854,32,107,803,-19.5667,13.2833,138,9.825,20.8599,1334.51,20.1,-27,47.1,11.8333,-2.39583,284,-12.8,56,0,18,6,24
2648,414,Baie Carbillet,53.918189,-76.570232,2,Fen,284,73,50.1327,24,108,693,-19.1667,12.0333,104,8.53333,19.176,1282.97,18.3,-26.2,44.5,11.5667,-2.475,243,-12.9333,125,0,14,6,20
2651,417,Presqu'ile,53.664292,-77.473737,2,Bog,278,81,48.6994,23,108,684,-19.6,12.3833,96,9.075,19.8144,1312.84,19.1,-26.7,45.8,7.95,-2.54583,233,-13.2167,54,0,18,4,22
2652,418,Sud Lac de l'Hiver,53.835146,-71.835561,2,Fen,306,100,44.3025,31,109,753,-21.2667,11.8833,115,9.68333,20.3431,1346.38,18.4,-29.2,47.6,10.7167,-3.93333,292,-14.4333,75,0,12,3,15
2654,420,Lac Kamisikamach,53.433239,-78.374937,2,Fen,250,72,47.4608,21,91,635,-19.9167,12.9833,93,10.2583,21.1077,1349.74,20.6,-28,48.6,12.1833,-2.35417,218,-13.1667,150,0,15,4,19
2655,421,Fort George,53.819714,-79.00494,2,Fen,215,66,44.8676,20,78,564,-20.0167,11.7667,89,9.65,20.4449,1322.77,18.5,-28.7,47.2,11.5667,-2.76667,196,-13.6167,75,0,14,4,18
2656,421,Fort George,53.819714,-79.00494,2,Bog,215,66,44.8676,20,78,564,-20.0167,11.7667,89,9.65,20.4449,1322.77,18.5,-28.7,47.2,11.5667,-2.76667,196,-13.6167,60,0,13,2,15
2657,422,Baie Carbillet II,53.927647,-76.501352,2,Fen,284,75,49.901,25,108,693,-18.9333,12.2333,104,8.45,19.0315,1280.43,18.5,-25.9,44.4,11.6833,-2.29167,244,-12.7,65,0,10,2,12
2659,424,Dead Duck Bay,53.58333333,-78.91666667,2,Fen,225,68,45.8212,20,79,585,-19.8,12.25,88,9.59167,20.2784,1324.98,19,-28.3,47.3,11.9167,-2.5125,204,-13.2333,75,0,17,4,21
2660,425,Chenal Achipwasich,53.052548,-76.922015,2,Fen,285,92,43.9672,26,106,732,-18.9167,13.7667,109,9.81667,20.8865,1332.75,20.9,-26.1,47,12.5667,-1.60833,252,-12.1333,60,0,14,2,16
2661,426,Lac Lablois,53.03398,-76.333696,2,Bog,296,93,44.3681,29,110,753,-18.75,13.7667,117,9.64167,20.646,1324.54,20.6,-26.1,46.7,12.5167,-1.5875,261,-11.9667,45,0,14,6,20
2670,432,Chisasibi nord,53.789206,-78.859993,2,Bog,223,66,45.865,20,78,578,-19.6167,12.25,89,9.70833,20.5685,1319.17,19.2,-28,47.2,11.8667,-2.42083,200,-13.1667,40,0,13,12,25
2673,432,Chisasibi nord,53.789206,-78.859993,2,Fen,223,66,45.865,20,78,578,-19.6167,12.25,89,9.70833,20.5685,1319.17,19.2,-28,47.2,11.8667,-2.42083,200,-13.1667,40,5,37,7,44
2678,435,Riviere Caillet,53.547956,-78.862186,2,Fen,229,68,45.9865,20,80,593,-19.7833,12.35,89,9.80833,20.6057,1327.24,19.3,-28.3,47.6,11.9667,-2.44583,207,-13.1167,65,0,21,8,29
2687,441,Lac Pamiskamis,53.655952,-76.552363,2,Bog,281,80,47.6274,26,106,701,-18.55,12.2667,106,8.33333,18.8537,1268.3,18.4,-25.8,44.2,12.0333,-2.05,244,-12.4167,125,0,6,7,13
2688,441,Lac Pamiskamis,53.655952,-76.552363,2,Fen,281,80,47.6274,26,106,701,-18.55,12.2667,106,8.33333,18.8537,1268.3,18.4,-25.8,44.2,12.0333,-2.05,244,-12.4167,230,2,4,2,6
2689,441,Lac Pamiskamis,53.655952,-76.552363,2,Fen,281,80,47.6274,26,106,701,-18.55,12.2667,106,8.33333,18.8537,1268.3,18.4,-25.8,44.2,12.0333,-2.05,244,-12.4167,200,15,15,8,23
2693,443,Ruisseau Auchikwacikananusich,53.741404,-76.195354,2,Fen,292,80,48.4752,26,110,718,-18.2,11.95,108,8.725,20.0115,1239.84,18.2,-25.4,43.6,11.3,-1.97917,254,-11.9167,135,20,30,9,39
2694,443,Ruisseau Auchikwacikananusich,53.741404,-76.195354,2,Fen,292,80,48.4752,26,110,718,-18.2,11.95,108,8.725,20.0115,1239.84,18.2,-25.4,43.6,11.3,-1.97917,254,-11.9167,170,2,28,7,35
2695,443,Ruisseau Auchikwacikananusich,53.741404,-76.195354,2,Bog,292,80,48.4752,26,110,718,-18.2,11.95,108,8.725,20.0115,1239.84,18.2,-25.4,43.6,11.3,-1.97917,254,-11.9167,135,0,13,5,18
2696,444,Lac Kukamas W,53.671447,-76.25397,2,Fen,287,81,47.4781,26,107,715,-18.6167,12.8333,108,8.91667,19.7271,1285.5,19.4,-25.8,45.2,12,-1.9,252,-12.0833,185,20,33,11,44
2697,444,Lac Kukamas W,53.671447,-76.25397,2,Bog,287,81,47.4781,26,107,715,-18.6167,12.8333,108,8.91667,19.7271,1285.5,19.4,-25.8,45.2,12,-1.9,252,-12.0833,198,20,18,4,22
2700,446,Pointe Anisustach,53.89584,-76.799222,2,Fen,283,80,48.526,25,107,698,-19.3333,12.75,102,9.15,19.8913,1314.89,19.5,-26.5,46,7.93333,-2.3,244,-12.95,80,2,17,11,28
2702,446,Pointe Anisustach,53.89584,-76.799222,2,Fen,283,80,48.526,25,107,698,-19.3333,12.75,102,9.15,19.8913,1314.89,19.5,-26.5,46,7.93333,-2.3,244,-12.95,130,0,10,4,14
2708,450,Lac Kamansak,53.800812,-75.750357,2,Fen,291,85,45.8785,27,106,728,-18.5667,10.8333,116,8.25833,19.3858,1223.26,16.7,-25.9,42.6,10.8333,-2.69583,257,-12.85,40,5,24,10,34
2715,454,Lac Magin,53.574388,-74.02767,2,Bog,303,103,40.8384,31,106,772,-19.9333,13.0167,132,9.38333,20.0071,1340.04,19.5,-27.4,46.9,11.6,-2.76667,278,-13.3667,47,0,13,9,22
2716,454,Lac Magin,53.574388,-74.02767,2,Fen,303,103,40.8384,31,106,772,-19.9333,13.0167,132,9.38333,20.0071,1340.04,19.5,-27.4,46.9,11.6,-2.76667,278,-13.3667,75,0,18,5,23
2717,454,Lac Magin,53.574388,-74.02767,2,Fen,303,103,40.8384,31,106,772,-19.9333,13.0167,132,9.38333,20.0071,1340.04,19.5,-27.4,46.9,11.6,-2.76667,278,-13.3667,125,0,25,9,34
2718,455,Baie Waminancis,53.724554,-74.27273,2,Fen,294,92,43.2024,29,103,742,-19.3667,12.4167,124,8.775,19.4568,1298.72,18.4,-26.7,45.1,11.4,-2.55417,270,-12.9,52,0,21,10,31
2719,456,Lac Chabran,53.179568,-74.223973,2,Fen,311,104,40.5257,32,109,801,-19.7,12.6833,140,9.83333,21.0114,1317.2,19.4,-27.4,46.8,11.3333,-2.66667,289,-12.8667,160,0,12,3,15
2720,456,Lac Chabran,53.179568,-74.223973,2,Bog,311,104,40.5257,32,109,801,-19.7,12.6833,140,9.83333,21.0114,1317.2,19.4,-27.4,46.8,11.3333,-2.66667,289,-12.8667,80,0,11,5,16
2731,462,Lac Montviel,53.79853,-70.154305,2,Bog,322,113,42.9154,31,112,793,-21.8,11.0167,116,10.0333,21.0342,1329.96,17.8,-29.9,47.7,9.93333,-4.6,302,-20.7,58,0,13,6,19
2733,464,Lac Chatenay,53.88333333,-69.88333333,2,Bog,323,114,42.1437,32,113,802,-22.0333,11.3833,119,10.3333,21.262,1352.93,18.5,-30.1,48.6,10.1667,-4.64167,302,-20.9167,60,2,13,6,19
2734,465,Lac Sauvageau,53.872477,-68.703051,2,Fen,320,132,36.6131,36,114,834,-21.95,11.4333,132,10.3417,21.3671,1347.86,18.6,-29.8,48.4,10.2333,-4.6875,296,-21.95,63,0,21,12,33
2735,465,Lac Sauvageau,53.872477,-68.703051,2,Fen,320,132,36.6131,36,114,834,-21.95,11.4333,132,10.3417,21.3671,1347.86,18.6,-29.8,48.4,10.2333,-4.6875,296,-21.95,75,0,29,9,38
2736,465,Lac Sauvageau,53.872477,-68.703051,2,Fen,320,132,36.6131,36,114,834,-21.95,11.4333,132,10.3417,21.3671,1347.86,18.6,-29.8,48.4,10.2333,-4.6875,296,-21.95,62,0,26,7,33
2737,466,Lac Maggiolo,53.38333333,-68.71666667,2,Fen,336,140,36.2834,39,119,876,-21.5333,11.25,141,10.2583,21.6421,1323.41,18.1,-29.3,47.4,10.1333,-4.47083,312,-20.1333,48,0,29,8,37
2738,466,Lac Maggiolo,53.38333333,-68.71666667,2,Fen,336,140,36.2834,39,119,876,-21.5333,11.25,141,10.2583,21.6421,1323.41,18.1,-29.3,47.4,10.1333,-4.47083,312,-20.1333,80,0,25,5,30
2739,466,Lac Maggiolo,53.38333333,-68.71666667,2,Fen,336,140,36.2834,39,119,876,-21.5333,11.25,141,10.2583,21.6421,1323.41,18.1,-29.3,47.4,10.1333,-4.47083,312,-20.1333,79,2,23,12,35
2740,467,Lac Perroche,53.486497,-68.194367,2,Bog,327,140,35.4418,38,118,862,-21.5167,11.0333,142,10.3167,21.9038,1312.3,18,-29.1,47.1,9.9,-4.58333,304,-20.0333,63,1,27,7,34
2741,467,Lac Perroche,53.486497,-68.194367,2,Fen,327,140,35.4418,38,118,862,-21.5167,11.0333,142,10.3167,21.9038,1312.3,18,-29.1,47.1,9.9,-4.58333,304,-20.0333,55,0,21,7,28
2742,468,Rapide du Trois,53.697637,-68.50449,2,Fen,319,137,35.2492,37,115,844,-21.8167,10.85,137,10.275,21.6772,1320.28,17.9,-29.5,47.4,9.78333,-4.7875,298,-20.4333,74,0,26,9,35
2744,468,Rapide du Trois,53.697637,-68.50449,2,Fen,319,137,35.2492,37,115,844,-21.8167,10.85,137,10.275,21.6772,1320.28,17.9,-29.5,47.4,9.78333,-4.7875,298,-20.4333,80,0,8,3,11
2745,469,Lac Aubanel,53.560876,-70.207533,2,Fen,328,115,43.159,32,114,809,-21.7167,11.6167,118,10.3,21.2371,1349.05,18.6,-29.9,48.5,10.4,-4.325,310,-20.5667,120,0,6,6,12
2746,469,Lac Aubanel,53.560876,-70.207533,2,Bog,328,115,43.159,32,114,809,-21.7167,11.6167,118,10.3,21.2371,1349.05,18.6,-29.9,48.5,10.4,-4.325,310,-20.5667,66,0,17,8,25
2747,470,Lac Larive,53.68333333,-70.03333333,2,Fen,323,120,40.3579,34,113,816,-21.8333,12.0167,120,10.5,21.3415,1368.6,19.1,-30.1,49.2,10.6833,-4.25833,305,-21.8333,98,10,15,6,21
2748,470,Lac Larive,53.68333333,-70.03333333,2,Bog,323,120,40.3579,34,113,816,-21.8333,12.0167,120,10.5,21.3415,1368.6,19.1,-30.1,49.2,10.6833,-4.25833,305,-21.8333,133,0,9,2,11
2749,471,Lac Rambau,53.71767,-70.145376,2,Bog,322,115,42.6565,32,112,794,-21.7833,11.3833,117,10.0917,20.9806,1344.02,18.2,-29.9,48.1,10.3,-4.4625,304,-20.6833,46,2,20,11,31
2752,474,Lac Cabanac,53.321529,-71.086466,2,Fen,325,107,45.5934,31,113,789,-21.5,12.3,113,10.2917,21.0464,1368.67,19,-29.9,48.9,11,-3.8625,308,-14.4,40,5,35,8,43
2753,474,Lac Cabanac,53.321529,-71.086466,2,Fen,325,107,45.5934,31,113,789,-21.5,12.3,113,10.2917,21.0464,1368.67,19,-29.9,48.9,11,-3.8625,308,-14.4,42,65,15,4,19
2761,478,Lac Dalmas,53.4027,-71.9255,2,Fen,317,107,43.1779,33,112,786,-20.8833,12.3333,122,10.1,20.9979,1348.03,19.2,-28.9,48.1,11.05,-3.5,299,-13.9,40,2,31,10,41
2762,478,Lac Dalmas,53.4027,-71.9255,2,Fen,317,107,43.1779,33,112,786,-20.8833,12.3333,122,10.1,20.9979,1348.03,19.2,-28.9,48.1,11.05,-3.5,299,-13.9,97,5,33,9,42
2763,478,Lac Dalmas,53.4027,-71.9255,2,Fen,317,107,43.1779,33,112,786,-20.8833,12.3333,122,10.1,20.9979,1348.03,19.2,-28.9,48.1,11.05,-3.5,299,-13.9,41,3,15,7,22
2764,478,Lac Dalmas,53.4027,-71.9255,2,Fen,317,107,43.1779,33,112,786,-20.8833,12.3333,122,10.1,20.9979,1348.03,19.2,-28.9,48.1,11.05,-3.5,299,-13.9,45,85,9,4,13
2765,479,Lac Grandfontaine,53.21666667,-70.63333333,2,Fen,333,118,43.3368,33,116,824,-21.5667,12.4333,118,10.7167,21.5627,1376.15,19.5,-30.2,49.7,11.05,-3.84167,318,-21.5667,134,4,25,8,33
2766,479,Lac Grandfontaine,53.21666667,-70.63333333,2,Fen,333,118,43.3368,33,116,824,-21.5667,12.4333,118,10.7167,21.5627,1376.15,19.5,-30.2,49.7,11.05,-3.84167,318,-21.5667,45,1,33,10,43
2767,480,Nord Lac Joubert,53.31416,-71.626483,2,Fen,325,110,43.8547,33,114,800,-21.0833,12.3333,121,10.2083,21.0916,1355.32,19.2,-29.2,48.4,11.0333,-3.62083,308,-14.0667,52,15,15,5,20
2768,480,Nord Lac Joubert,53.31416,-71.626483,2,Fen,325,110,43.8547,33,114,800,-21.0833,12.3333,121,10.2083,21.0916,1355.32,19.2,-29.2,48.4,11.0333,-3.62083,308,-14.0667,43,8,37,10,47
2769,480,Nord Lac Joubert,53.31416,-71.626483,2,Fen,325,110,43.8547,33,114,800,-21.0833,12.3333,121,10.2083,21.0916,1355.32,19.2,-29.2,48.4,11.0333,-3.62083,308,-14.0667,42,10,8,1,9
2770,481,Lac Orillat Est,53.021758,-72.268846,2,Fen,320,114,40.1273,36,112,821,-20.4833,12.55,136,10.3083,21.3866,1339.05,19.5,-28.7,48.2,11.1167,-3.22083,308,-13.4833,40,0,14,9,23
2771,482,Lac Ernst,53.2,-72.38333333,2,Fen,325,110,41.8112,36,115,818,-20.7333,12.0667,135,10.125,21.182,1331.9,18.9,-28.9,47.8,10.7167,-3.57083,310,-13.8167,47,0,20,10,30
2772,483,Mine Jos Mann,49.5,-74.5,2,Bog,352,141,34.7398,45,122,960,-16.8667,14.6833,169,11.6,24.3697,1276.73,22.4,-25.2,47.6,13.4333,-0.141667,332,-9.3,300,0,13,5,18
2773,484,Riviere Assinica,50.621477,-75.573437,2,Bog,333,120,37.626,38,112,891,-17.6333,14.2333,152,10.925,23.0973,1291.02,21.7,-25.6,47.3,13.0333,-0.695833,316,-10.1,210,0,10,6,16
2774,484,Riviere Assinica,50.621477,-75.573437,2,Bog,333,120,37.626,38,112,891,-17.6333,14.2333,152,10.925,23.0973,1291.02,21.7,-25.6,47.3,13.0333,-0.695833,316,-10.1,125,0,10,3,13
2780,490,Lac Testard,50.850086,-74.441041,2,Bog,335,152,29.5592,43,114,961,-18.0667,14.2333,206,10.9167,22.9342,1306.39,21.5,-26.1,47.6,12.8833,-1.04167,321,-10.6667,95,1,11,4,15
2783,492,Lac Kaanikuuchasimku,50.450216,-74.303372,2,Bog,349,165,28.3872,48,117,1012,-17.9333,14,220,11.3667,23.8295,1293.42,21.6,-26.1,47.7,12.6833,-1.05833,336,-10.4833,220,0,14,5,19
2784,493,Lac du Sauvage,50.1,-74.43333333,2,Fen,351,153,31.1564,46,122,992,-17.4167,14.1333,191,11.3917,24.0839,1277.1,21.7,-25.6,47.3,12.8667,-0.679167,334,-9.88333,175,0,16,4,20
2785,494,Guyon,50.58333333,-73.66666667,2,Fen,335,171,26.9821,46,119,1013,-17.8833,13.85,250,11.2667,23.6695,1284.99,21.3,-26.3,47.6,12.6,-1.1,328,-10.4667,285,5,10,1,11
2786,494,Guyon,50.58333333,-73.66666667,2,Fen,335,171,26.9821,46,119,1013,-17.8833,13.85,250,11.2667,23.6695,1284.99,21.3,-26.3,47.6,12.6,-1.1,328,-10.4667,110,3,15,2,17
2787,495,Sud Lac Opataca,50.35,-74.76666667,2,Fen,347,138,33.9147,44,118,954,-17.7,14.0833,179,11.3,23.8397,1286.22,21.6,-25.8,47.4,12.8167,-0.841667,327,-10.1,170,5,13,7,20
2788,496,Sud Lac Lloyd,52.135797,-75.518591,2,Fen,313,112,38.5185,35,110,831,-18.55,14.3,144,10.15,21.4588,1333.36,21.2,-26.1,47.3,12.9833,-1.26667,287,-11.5,180,15,18,5,23
2789,497,Lac Kauakiekamatsh,52.052548,-75.200484,2,Bog,317,120,36.6861,36,108,851,-18.6667,14.1,153,10.6167,22.2106,1331.22,21.4,-26.4,47.8,12.6667,-1.38333,295,-11.5167,145,2,17,7,24
2790,497,Lac Kauakiekamatsh,52.052548,-75.200484,2,Fen,317,120,36.6861,36,108,851,-18.6667,14.1,153,10.6167,22.2106,1331.22,21.4,-26.4,47.8,12.6667,-1.38333,295,-11.5167,240,35,10,5,15
2791,497,Lac Kauakiekamatsh,52.052548,-75.200484,2,Fen,317,120,36.6861,36,108,851,-18.6667,14.1,153,10.6167,22.2106,1331.22,21.4,-26.4,47.8,12.6667,-1.38333,295,-11.5167,155,30,13,2,15
2792,498,Les Melezes,52.05,-76.46666667,2,Fen,308,102,41.7533,30,111,801,-18.45,14.05,126,10.5,22.1987,1323.36,21.4,-25.9,47.3,12.8167,-1.175,278,-11.2667,200,0,10,4,14
2793,498,Les Melezes,52.05,-76.46666667,2,Bog,308,102,41.7533,30,111,801,-18.45,14.05,126,10.5,22.1987,1323.36,21.4,-25.9,47.3,12.8167,-1.175,278,-11.2667,300,5,19,5,24
2794,498,Les Melezes,52.05,-76.46666667,2,Fen,308,102,41.7533,30,111,801,-18.45,14.05,126,10.5,22.1987,1323.36,21.4,-25.9,47.3,12.8167,-1.175,278,-11.2667,210,15,10,2,12
2796,500,Nord Lac Saint-Armand,52.281608,-75.823158,2,Bog,311,101,41.6884,33,111,808,-18.5333,14.1333,134,10.375,21.8421,1328.22,21.4,-26.1,47.5,12.7333,-1.27083,282,-11.4167,300,0,15,6,21
2797,500,Nord Lac Saint-Armand,52.281608,-75.823158,2,Fen,311,101,41.6884,33,111,808,-18.5333,14.1333,134,10.375,21.8421,1328.22,21.4,-26.1,47.5,12.7333,-1.27083,282,-11.4167,145,15,12,5,17
2803,504,Lac Mistamiskwas,52.536447,-76.626643,2,Bog,299,98,42.9039,29,112,774,-18.4833,14.0333,120,9.76667,20.9136,1321.67,21,-25.7,46.7,12.8167,-1.3,263,-11.5833,290,0,18,4,22
2804,505,Petite riviere Opinaca,52.436356,-77.05603,2,Fen,292,87,45.4409,25,109,745,-18.5167,13.7833,111,10.1583,21.6135,1317.08,21.1,-25.9,47,12.65,-1.29583,258,-11.4667,50,0,14,4,18
2805,506,Lac Menouow,52.727084,-76.158581,2,Bog,298,101,41.5644,30,107,774,-18.5333,13.85,122,9.61667,20.7256,1317.75,20.6,-25.8,46.4,12.7167,-1.425,268,-11.7833,300,0,16,5,21
2806,507,Eastman,52.22437,-78.417556,2,Fen,263,75,47.4848,19,92,671,-18.05,13.8333,93,9.825,21.1746,1306.14,20.8,-25.6,46.4,9.46667,-0.870833,225,-11.1167,115,0,9,1,10
2807,508,Lac Kawayapiskach,52.607761,-78.517191,2,Fen,255,69,48.5608,19,91,651,-18.7,13.1833,92,10.1583,21.5676,1307.7,20.4,-26.7,47.1,8.88333,-1.47083,221,-11.7333,175,0,21,4,25
2836,523,Lac Chamer,54.579647,-69.788301,2,Bog,296,111,40.6943,31,104,743,-22.3,10.45,113,9.83333,20.5718,1334.58,17.6,-30.2,47.8,9.81667,-5.16667,275,-21.3667,195,2,16,7,23
2837,523,Lac Chamer,54.579647,-69.788301,2,Fen,296,111,40.6943,31,104,743,-22.3,10.45,113,9.83333,20.5718,1334.58,17.6,-30.2,47.8,9.81667,-5.16667,275,-21.3667,40,55,16,3,19
2841,525,Lac Malapart,54.2,-68.91666667,2,Fen,313,126,38.0438,35,110,802,-22.2833,10.95,126,10.3833,21.4532,1343.65,18.2,-30.2,48.4,9.78333,-5.00833,288,-21.0333,50,20,28,7,35
2842,525,Lac Malapart,54.2,-68.91666667,2,Fen,313,126,38.0438,35,110,802,-22.2833,10.95,126,10.3833,21.4532,1343.65,18.2,-30.2,48.4,9.78333,-5.00833,288,-21.0333,86,45,8,4,12
2843,526,Lac Dolu,54.761143,-68.828147,2,Fen,298,117,39.1892,32,107,754,-22.6833,10.4,119,10.1917,21.1885,1338.94,17.7,-30.4,48.1,9.35,-5.4625,273,-21.5,72,17,19,7,26
2852,534,Lac Kanakapahan,52.55,-76.25,2,Bog,297,98,42.0632,30,108,771,-18.2333,13.4333,123,9.23333,20.3377,1288.91,20,-25.4,45.4,12.6167,-1.41667,266,-11.4833,100,0,12,7,19
2853,535,Riviere Eastman est,52.182418,-77.743214,2,Bog,282,86,45.1194,23,102,732,-18.0667,14.25,105,9.975,21.2687,1320.66,21.5,-25.4,46.9,9.08333,-0.795833,250,-11.0833,55,0,12,7,19
2854,536,Lac McNab,52.91666667,-77.38333333,2,Bog,288,88,46.2636,24,109,727,-19.15,13.8333,104,10.15,21.2788,1347.1,21.1,-26.6,47.7,8.45,-1.65833,247,-12.3333,70,0,8,6,14
2856,538,Lac Assinica,50.45,-75.4,2,Fen,342,125,37.2048,40,117,919,-17.8167,13.95,158,11.15,23.5729,1286.13,21.5,-25.8,47.3,12.7167,-0.941667,323,-10.2167,75,0,8,5,13
2865,547,Epimichischiskach Esayau,51.43333333,-77.83333333,2,Bog,293,98,41.7822,25,101,776,-17.0667,14.6833,114,9.6,21.0066,1297.52,21.7,-24,45.7,13.6333,-0.183333,270,-10.25,300,0,15,4,19
2867,548,Route de la Baie James,51.378988,-77.456389,2,Bog,306,106,40.7673,27,105,815,-17.4333,14.45,122,10.15,21.9697,1299.8,21.7,-24.5,46.2,13.2667,-0.541667,284,-10.5167,185,0,17,6,23
2868,548,Route de la Baie James,51.378988,-77.456389,2,Fen,306,106,40.7673,27,105,815,-17.4333,14.45,122,10.15,21.9697,1299.8,21.7,-24.5,46.2,13.2667,-0.541667,284,-10.5167,105,0,12,6,18
2869,549,Lac 198,52.55,-77.5,2,Fen,285,89,44.9453,24,105,737,-18.9167,14.1833,106,10.4,21.6216,1351.25,21.7,-26.4,48.1,8.63333,-1.375,252,-11.9833,195,0,12,4,16
2870,549,Lac 198,52.55,-77.5,2,Bog,285,89,44.9453,24,105,737,-18.9167,14.1833,106,10.4,21.6216,1351.25,21.7,-26.4,48.1,8.63333,-1.375,252,-11.9833,46,0,10,4,14
2871,549,Lac 198,52.55,-77.5,2,Bog,285,89,44.9453,24,105,737,-18.9167,14.1833,106,10.4,21.6216,1351.25,21.7,-26.4,48.1,8.63333,-1.375,252,-11.9833,65,0,16,6,22
2872,550,Waskaganish,51.5,-78.48333333,2,Bog,278,89,43.608,22,97,729,-16.3,15.05,104,8.33333,18.7266,1280.21,21.7,-22.8,44.5,14.1833,0.208333,252,-10,275,15,18,3,21
2873,550,Waskaganish,51.5,-78.48333333,2,Fen,278,89,43.608,22,97,729,-16.3,15.05,104,8.33333,18.7266,1280.21,21.7,-22.8,44.5,14.1833,0.208333,252,-10,285,0,23,6,29
2874,550,Waskaganish,51.5,-78.48333333,2,Fen,278,89,43.608,22,97,729,-16.3,15.05,104,8.33333,18.7266,1280.21,21.7,-22.8,44.5,14.1833,0.208333,252,-10,260,10,20,3,23
2877,552,Baie Chiyaske,51.43333333,-79.5,2,Fen,265,86,43.3927,21,95,692,-16.7667,14.5667,96,9.19167,20.4714,1283.43,21.4,-23.5,44.9,13.8667,-0.0291666,245,-15.7167,125,34,21,4,25
2878,552,Baie Chiyaske,51.43333333,-79.5,2,Fen,265,86,43.3927,21,95,692,-16.7667,14.5667,96,9.19167,20.4714,1283.43,21.4,-23.5,44.9,13.8667,-0.0291666,245,-15.7167,80,0,14,5,19
2879,553,PEninsule Ministikawatin,51.26666667,-79.23333333,2,Fen,275,92,42.7831,22,97,720,-16.35,15.3167,102,8.88333,19.697,1297.48,22.1,-23,45.1,14.4167,0.425,250,-15.3667,85,2,28,7,35
2880,553,PEninsule Ministikawatin,51.26666667,-79.23333333,2,Fen,275,92,42.7831,22,97,720,-16.35,15.3167,102,8.88333,19.697,1297.48,22.1,-23,45.1,14.4167,0.425,250,-15.3667,55,35,28,4,32
2881,553,PEninsule Ministikawatin,51.26666667,-79.23333333,2,Bog,275,92,42.7831,22,97,720,-16.35,15.3167,102,8.88333,19.697,1297.48,22.1,-23,45.1,14.4167,0.425,250,-15.3667,100,0,17,3,20
2882,553,PEninsule Ministikawatin,51.26666667,-79.23333333,2,Fen,275,92,42.7831,22,97,720,-16.35,15.3167,102,8.88333,19.697,1297.48,22.1,-23,45.1,14.4167,0.425,250,-15.3667,50,45,19,3,22
2891,559,Asuwapamatikunan,50.73333333,-79.4,2,Fen,289,101,40.8972,25,103,760,-16.3833,15.6167,112,10.1333,21.8391,1304.94,22.9,-23.5,46.4,14.6333,0.558333,269,-9.38333,140,1,18,2,20
2892,559,Asuwapamatikunan,50.73333333,-79.4,2,Bog,289,101,40.8972,25,103,760,-16.3833,15.6167,112,10.1333,21.8391,1304.94,22.9,-23.5,46.4,14.6333,0.558333,269,-9.38333,130,0,18,5,23
2893,559,Asuwapamatikunan,50.73333333,-79.4,2,Fen,289,101,40.8972,25,103,760,-16.3833,15.6167,112,10.1333,21.8391,1304.94,22.9,-23.5,46.4,14.6333,0.558333,269,-9.38333,120,25,21,3,24
2894,560,Lac Sesitinikashish,50.11666667,-78.23333333,2,Fen,321,124,37.1854,30,114,870,-16.6833,14.9833,137,10.9417,23.2801,1286.54,22.6,-24.4,47,13.8667,0.0208332,307,-9.58333,300,25,34,6,40
2895,561,Ouest Lac Lucie,50.41666667,-78.53333333,2,Bog,314,118,38.3464,28,112,846,-16.6167,14.8833,129,10.175,22.2162,1281.96,22.1,-23.7,45.8,13.7667,-0.0708333,297,-15.4667,220,0,14,4,18
2896,561,Ouest Lac Lucie,50.41666667,-78.53333333,2,Fen,314,118,38.3464,28,112,846,-16.6167,14.8833,129,10.175,22.2162,1281.96,22.1,-23.7,45.8,13.7667,-0.0708333,297,-15.4667,180,2,33,4,37
2897,561,Ouest Lac Lucie,50.41666667,-78.53333333,2,Bog,314,118,38.3464,28,112,846,-16.6167,14.8833,129,10.175,22.2162,1281.96,22.1,-23.7,45.8,13.7667,-0.0708333,297,-15.4667,280,10,14,4,18
2898,561,Ouest Lac Lucie,50.41666667,-78.53333333,2,Bog,314,118,38.3464,28,112,846,-16.6167,14.8833,129,10.175,22.2162,1281.96,22.1,-23.7,45.8,13.7667,-0.0708333,297,-15.4667,300,10,19,4,23
2899,562,Lac Pimapuwesu,50.55,-78.41666667,2,Bog,310,115,38.9333,28,110,835,-16.5,14.7833,127,9.80833,21.652,1272.06,21.8,-23.5,45.3,13.7,-0.0458334,292,-15.3333,300,2,17,3,20
2900,562,Lac Pimapuwesu,50.55,-78.41666667,2,Fen,310,115,38.9333,28,110,835,-16.5,14.7833,127,9.80833,21.652,1272.06,21.8,-23.5,45.3,13.7,-0.0458334,292,-15.3333,300,20,18,8,26
2901,562,Lac Pimapuwesu,50.55,-78.41666667,2,Fen,310,115,38.9333,28,110,835,-16.5,14.7833,127,9.80833,21.652,1272.06,21.8,-23.5,45.3,13.7,-0.0458334,292,-15.3333,65,0,15,5,20
2902,563,Lac Carheil 2,49.75,-79.16666667,2,Fen,320,112,39.438,31,113,847,-16.8333,15.1667,137,11.6833,24.2897,1303.96,23,-25.1,48.1,14.1,0.133333,295,-9.53333,210,0,18,4,22
2903,564,Ontario II,50.4,-79.71666667,2,Bog,299,108,39.3582,29,109,799,-17.3333,14.7833,126,11.0917,23.2043,1308.49,22.5,-25.3,47.8,13.7833,-0.345833,282,-10.15,300,1,13,2,15
2904,565,Riviere Turgeon,49.93333333,-79.43333333,2,Fen,313,109,39.5108,30,110,832,-16.9,15.05,134,11.4083,23.817,1299.58,22.8,-25.1,47.9,13.9667,0.0458334,292,-9.58333,280,1,35,3,38
2905,565,Riviere Turgeon,49.93333333,-79.43333333,2,Fen,313,109,39.5108,30,110,832,-16.9,15.05,134,11.4083,23.817,1299.58,22.8,-25.1,47.9,13.9667,0.0458334,292,-9.58333,300,30,24,5,29
2917,570,Lac Caminsanane,50.46666667,-76.05,2,Bog,343,118,39.5289,35,118,908,-17.6833,14.0333,147,10.8083,23.0455,1283.26,21.4,-25.5,46.9,12.8,-0.9125,323,-10.2,55,0,9,7,16
2918,570,Lac Caminsanane,50.46666667,-76.05,2,Bog,343,118,39.5289,35,118,908,-17.6833,14.0333,147,10.8083,23.0455,1283.26,21.4,-25.5,46.9,12.8,-0.9125,323,-10.2,295,20,18,5,23
2930,577,Lac Soscuminga est III,50.2,-77.28333333,2,Fen,326,122,38.1211,30,111,880,-16.8833,14.5667,136,11.2,23.7792,1278.48,22.3,-24.8,47.1,13.4667,-0.15,313,-9.53333,80,0,19,7,26
2932,579,Sud Lac Poli,50.11666667,-78.01666667,2,Bog,323,130,35.9558,32,114,882,-16.9667,15.1,141,11.4333,23.8194,1305.17,23.1,-24.9,48,13.9333,-0.0166667,310,-9.75,300,1,20,8,28
2935,581,Lac des Cygnes,49.898654,-72.925115,2,Bog,348,158,28.7397,51,123,1013,-17.7667,14.65,213,12.075,24.5427,1311.53,22.5,-26.7,49.2,13.2167,-0.6375,341,-10.1,220,3,15,7,22
2939,584,Nord Lac aux Oeufs,54.7,-72.45,2,Fen,288,90,45.0761,29,101,699,-21.25,12,108,8.88333,18.9007,1356.84,18.3,-28.7,47,10.7333,-4.025,265,-15,280,0,13,7,20
2940,584,Nord Lac aux Oeufs,54.7,-72.45,2,Fen,288,90,45.0761,29,101,699,-21.25,12,108,8.88333,18.9007,1356.84,18.3,-28.7,47,10.7333,-4.025,265,-15,100,2,22,8,30
2941,584,Nord Lac aux Oeufs,54.7,-72.45,2,Bog,288,90,45.0761,29,101,699,-21.25,12,108,8.88333,18.9007,1356.84,18.3,-28.7,47,10.7333,-4.025,265,-15,75,0,17,11,28
2945,586,Nord Lac Billet,54.38333333,-73.46666667,2,Bog,293,92,44.2563,29,103,724,-20.7,12.0167,116,8.625,18.7908,1334.86,18,-27.9,45.9,10.8,-3.67083,270,-14.4667,80,0,15,5,20
2946,586,Nord Lac Billet,54.38333333,-73.46666667,2,Fen,293,92,44.2563,29,103,724,-20.7,12.0167,116,8.625,18.7908,1334.86,18,-27.9,45.9,10.8,-3.67083,270,-14.4667,80,35,23,8,31
2947,586,Nord Lac Billet,54.38333333,-73.46666667,2,Fen,293,92,44.2563,29,103,724,-20.7,12.0167,116,8.625,18.7908,1334.86,18,-27.9,45.9,10.8,-3.67083,270,-14.4667,170,0,16,9,25
2956,589,Marais Mistaschakw,54.66666667,-74.08333333,2,Bog,282,90,44.11,28,99,700,-20.4833,12.35,112,8.39167,18.3625,1343.02,18.4,-27.3,45.7,11.05,-3.40417,256,-14.4333,90,0,13,7,20
2957,589,Marais Mistaschakw,54.66666667,-74.08333333,2,Fen,282,90,44.11,28,99,700,-20.4833,12.35,112,8.39167,18.3625,1343.02,18.4,-27.3,45.7,11.05,-3.40417,256,-14.4333,90,20,31,9,40
2960,589,Marais Mistaschakw,54.66666667,-74.08333333,2,Bog,282,90,44.11,28,99,700,-20.4833,12.35,112,8.39167,18.3625,1343.02,18.4,-27.3,45.7,11.05,-3.40417,256,-14.4333,55,0,13,6,19
2961,591,Nutimesanu,51.45,-78.01666667,2,Bog,289,96,42.417,24,100,763,-16.9333,15.0333,111,9.46667,20.5797,1306.26,22.2,-23.8,46,13.95,0.0166667,264,-10.1667,230,0,15,2,17
2962,591,Nutimesanu,51.45,-78.01666667,2,Fen,289,96,42.417,24,100,763,-16.9333,15.0333,111,9.46667,20.5797,1306.26,22.2,-23.8,46,13.95,0.0166667,264,-10.1667,295,0,11,3,14
2964,593,Riviere Kitchigama nord,51.05,-78.75,2,Fen,285,99,41.0236,24,100,755,-15.8333,15.2167,110,8.33333,18.9825,1268.41,21.7,-22.2,43.9,14.2833,0.516667,262,-14.8833,130,0,26,7,33
2965,593,Riviere Kitchigama nord,51.05,-78.75,2,Fen,285,99,41.0236,24,100,755,-15.8333,15.2167,110,8.33333,18.9825,1268.41,21.7,-22.2,43.9,14.2833,0.516667,262,-14.8833,110,0,21,1,22
2966,594,Riviere Octave,51.33333333,-79.08333333,2,Fen,272,89,43.4019,21,96,712,-16,14.6167,100,8.34167,19.2204,1254.14,21,-22.4,43.4,13.8667,0.304167,248,-14.9833,175,0,19,2,21
2967,594,Riviere Octave,51.33333333,-79.08333333,2,Bog,272,89,43.4019,21,96,712,-16,14.6167,100,8.34167,19.2204,1254.14,21,-22.4,43.4,13.8667,0.304167,248,-14.9833,70,1,17,7,24
2969,554,Pointe de la consolation,51.630307,-79.276892,2,Fen,264,82,44.5614,20,93,688,-16.6,13.9333,94,8.75,20.0688,1254.6,20.5,-23.1,43.6,13.4333,-0.283333,241,-15.7667,50,0,18,2,20
2972,596,Riviere Harricana est,50.45,-78.95,2,Bog,303,108,40.0427,27,109,806,-16.45,15.1167,123,10.325,22.397,1286.1,22.4,-23.7,46.1,14.0833,0.2625,285,-9.48333,300,1,16,3,19
2973,596,Riviere Harricana est,50.45,-78.95,2,Bog,303,108,40.0427,27,109,806,-16.45,15.1167,123,10.325,22.397,1286.1,22.4,-23.7,46.1,14.0833,0.2625,285,-9.48333,270,0,15,3,18
2974,597,Lac Maurice,50.441466,-77.978168,2,Bog,318,123,37.4405,29,111,862,-16.7833,14.6,133,10.3667,22.5853,1275.8,21.8,-24.1,45.9,13.5,-0.241667,303,-15.6,280,0,14,5,19
2975,597,Lac Maurice,50.441466,-77.978168,2,Fen,318,123,37.4405,29,111,862,-16.7833,14.6,133,10.3667,22.5853,1275.8,21.8,-24.1,45.9,13.5,-0.241667,303,-15.6,220,0,27,4,31
2976,598,Papakamistikw,50.86645,-78.818644,2,Fen,293,103,40.3812,25,104,776,-16.1667,15.3667,115,9.125,20.3229,1287.51,22.2,-22.7,44.9,14.3,0.420833,271,-15.1167,55,0,16,4,20
2977,598,Papakamistikw,50.86645,-78.818644,2,Bog,293,103,40.3812,25,104,776,-16.1667,15.3667,115,9.125,20.3229,1287.51,22.2,-22.7,44.9,14.3,0.420833,271,-15.1167,180,0,17,3,20
2978,599,Lac Grasset,49.98333333,-78.21666667,2,Bog,322,128,36.3679,31,114,877,-16.55,15.3333,139,11.275,23.7368,1295.4,23.2,-24.3,47.5,14.2167,0.270833,307,-9.4,300,1,11,6,17
2979,599,Lac Grasset,49.98333333,-78.21666667,2,Bog,322,128,36.3679,31,114,877,-16.55,15.3333,139,11.275,23.7368,1295.4,23.2,-24.3,47.5,14.2167,0.270833,307,-9.4,240,0,12,3,15
2980,600,Lac des Nogeau,50.56666667,-78.93333333,2,Bog,298,108,39.797,26,106,796,-16.3833,15.4833,120,9.91667,21.6049,1297.98,22.6,-23.3,45.9,14.4,0.416667,281,-15.2167,300,0,18,3,21
2981,600,Lac des Nogeau,50.56666667,-78.93333333,2,Bog,298,108,39.797,26,106,796,-16.3833,15.4833,120,9.91667,21.6049,1297.98,22.6,-23.3,45.9,14.4,0.416667,281,-15.2167,300,2,16,3,19
2982,600,Lac des Nogeau,50.56666667,-78.93333333,2,Bog,298,108,39.797,26,106,796,-16.3833,15.4833,120,9.91667,21.6049,1297.98,22.6,-23.3,45.9,14.4,0.416667,281,-15.2167,300,0,11,2,13
2983,601,Est Lac Lucie,50.429159,-78.503601,2,Fen,313,117,38.4605,28,112,845,-16.65,14.6833,129,10.1333,22.1736,1274.4,21.9,-23.8,45.7,13.6,-0.175,297,-15.5,180,0,8,6,14
2984,602,Lac Montreau,50.340805,-77.945852,2,Bog,321,127,36.574,30,111,870,-16.8333,14.65,136,10.9,23.3906,1281.73,22.2,-24.4,46.6,13.5333,-0.183333,304,-15.6167,300,0,13,3,16
2985,602,Lac Montreau,50.340805,-77.945852,2,Fen,321,127,36.574,30,111,870,-16.8333,14.65,136,10.9,23.3906,1281.73,22.2,-24.4,46.6,13.5333,-0.183333,304,-15.6167,260,5,16,6,22
2986,603,Mines Selbaie,49.71666667,-78.88333333,2,Fen,324,114,39.7591,30,115,857,-16.7667,14.9,136,11.7083,24.4433,1287.99,22.9,-25,47.9,13.8333,0.0291667,300,-9.46667,95,15,8,4,12
2987,604,Riviere Missisicabi,50.975021,-79.013437,2,Fen,289,98,41.8213,24,103,757,-16.0833,15.15,110,8.99167,20.206,1277.24,21.9,-22.6,44.5,14.2167,0.429167,266,-15.0333,100,0,23,3,26
2988,604,Riviere Missisicabi,50.975021,-79.013437,2,Fen,289,98,41.8213,24,103,757,-16.0833,15.15,110,8.99167,20.206,1277.24,21.9,-22.6,44.5,14.2167,0.429167,266,-15.0333,100,2,25,3,28
2995,608,Ouest Lac de la peupleraie,50.418258,-77.069053,2,Fen,326,118,38.936,30,111,873,-17.1,14.3333,135,10.8667,23.2691,1276.82,21.8,-24.9,46.7,13.2167,-0.391667,312,-9.75,300,5,36,8,44
3003,613,Riviere Pontax,51.83333333,-76.78333333,2,Bog,305,103,41.3586,29,108,798,-18.1833,14.6667,123,10.6417,22.1701,1337.94,22.4,-25.6,48,13.3833,-0.7625,279,-11.0167,70,0,9,3,12
3004,614,Lac Kawasekamich,51.2,-77.36666667,2,Bog,310,104,41.0409,27,107,823,-17.2833,14.05,124,9.93333,21.7836,1275.24,21.1,-24.5,45.6,12.9833,-0.641667,288,-10.3,65,0,16,5,21
3007,617,Ruisseau Swaluman,50.73333333,-78.73333333,2,Bog,302,109,39.924,26,107,802,-16.5167,15.3,119,9.76667,21.2781,1299.84,22.5,-23.4,45.9,14.2167,0.258333,282,-15.4,93,0,6,4,10
3008,617,Ruisseau Swaluman,50.73333333,-78.73333333,2,Bog,302,109,39.924,26,107,802,-16.5167,15.3,119,9.76667,21.2781,1299.84,22.5,-23.4,45.9,14.2167,0.258333,282,-15.4,60,0,8,4,12
3009,617,Ruisseau Swaluman,50.73333333,-78.73333333,2,Bog,302,109,39.924,26,107,802,-16.5167,15.3,119,9.76667,21.2781,1299.84,22.5,-23.4,45.9,14.2167,0.258333,282,-15.4,90,0,7,5,12
3010,618,Lac Manthet W,50.034,-79.358915,2,Bog,314,110,39.7186,30,112,834,-16.9333,14.7667,133,11.0833,23.4816,1288.22,22.3,-24.9,47.2,13.7167,-0.15,293,-9.71667,180,0,14,5,19
3015,622,Chimuchishisapich,50.55,-78.56666667,2,Fen,308,112,39.4981,27,110,827,-16.6,14.65,125,10.0083,21.9963,1273.91,21.8,-23.7,45.5,13.6333,-0.1125,290,-15.4667,1,0,9,8,17
3016,623,Kamaschistin II,50.618828,-78.540286,2,Fen,309,112,39.6298,27,110,824,-16.5833,14.7,124,9.86667,21.7807,1276.01,21.8,-23.5,45.3,13.6833,-0.0833334,288,-15.4833,130,0,12,6,18
3017,624,Ontario I,50.43333333,-79.53333333,2,Bog,300,105,40.2336,28,108,797,-16.9833,14.75,124,10.7417,22.9033,1292.6,22.2,-24.7,46.9,13.7667,-0.195833,282,-9.9,47,0,15,5,20
3018,625,Lac Obamska,50.425664,-78.231184,2,Fen,316,120,37.8004,29,111,852,-16.6333,14.5167,131,10.2417,22.5092,1267.46,21.7,-23.8,45.5,13.4833,-0.204167,299,-15.4667,65,1,21,11,32
3019,626,Ouest Lac Salamandre,50.21666667,-78.48333333,2,Bog,319,120,38.0197,29,114,859,-16.9,14.6,134,10.8917,23.3226,1282.92,22.2,-24.5,46.7,13.5167,-0.2625,302,-9.88333,101,1,13,8,21
3020,626,Ouest Lac Salamandre,50.21666667,-78.48333333,2,Bog,319,120,38.0197,29,114,859,-16.9,14.6,134,10.8917,23.3226,1282.92,22.2,-24.5,46.7,13.5167,-0.2625,302,-9.88333,180,0,9,8,17
3021,626,Ouest Lac Salamandre,50.21666667,-78.48333333,2,Fen,319,120,38.0197,29,114,859,-16.9,14.6,134,10.8917,23.3226,1282.92,22.2,-24.5,46.7,13.5167,-0.2625,302,-9.88333,89,1,14,7,21
3022,627,Sud Lac Puibarau,54.7194,-73.8228,2,Fen,286,81,46.7337,26,101,692,-20.6,12.1,109,8.425,18.3952,1336.84,18.2,-27.6,45.8,10.8,-3.57083,260,-14.45,104,2,19,10,29
3024,629,Lac Dusaux,50.75,-77.93333333,2,Fen,307,118,37.7192,28,108,835,-16.7,14.6,127,9.91667,21.8429,1273.87,21.7,-23.7,45.4,13.5667,-0.175,291,-15.5833,140,1,25,2,27
3025,630,Lac Lucie Sud,50.387704,-78.426784,2,Bog,312,117,38.2007,28,111,841,-16.6333,14.75,130,10.1667,22.2465,1276.55,21.9,-23.8,45.7,13.6833,-0.116667,295,-9.78333,52,0,6,4,10
3026,631,Lac Uchikuchasuw,54.137103,-74.449922,2,Bog,294,92,43.7407,28,102,739,-20.0333,12.5,119,8.76667,19.0995,1325.73,18.8,-27.1,45.9,11.1,-3.125,267,-13.75,45,1,18,7,25
3028,633,Lac HourE,51.21666667,-77.66666667,2,Fen,305,103,40.8946,26,104,809,-17.3,14.3667,121,9.90833,21.6813,1289.69,21.5,-24.2,45.7,13.2333,-0.529167,283,-10.4167,85,0,14,4,18
3031,636,Lac Kanaaupscow,54.027018,-76.322221,2,Fen,279,80,47.7503,24,104,689,-18.6333,11.85,104,7.93333,18.3218,1263.09,17.7,-25.6,43.3,11.8333,-2.24167,242,-12.7333,125,0,11,4,15
3034,638,Sud Lac Lavau,51.093391,-77.109111,2,Fen,317,109,40.3453,29,109,838,-17.4167,14.0333,128,10.325,22.397,1279.24,21.3,-24.8,46.1,12.9333,-0.729167,296,-10.3333,55,0,17,8,25
3036,640,Capsisit Lake,49.78333333,-76.16666667,2,Bog,341,118,40.5589,32,118,899,-16.7833,14.6,137,11.4417,24.2408,1272.05,22.3,-24.9,47.2,13.45,-0.0375,323,-9.15,50,1,14,8,22
3046,589,Marais Mistaschakw,54.66666667,-74.08333333,2,Bog,282,90,44.11,28,99,700,-20.4833,12.35,112,8.39167,18.3625,1343.02,18.4,-27.3,45.7,11.05,-3.40417,256,-14.4333,40,0,15,8,23
3047,589,Marais Mistaschakw,54.66666667,-74.08333333,2,Bog,282,90,44.11,28,99,700,-20.4833,12.35,112,8.39167,18.3625,1343.02,18.4,-27.3,45.7,11.05,-3.40417,256,-14.4333,125,5,21,8,29
3048,645,Riviere Kanaaupscow,54.36666667,-75.75,2,Bog,285,75,49.6735,24,103,693,-19.6167,12.5667,105,8.625,19.0397,1316.72,18.8,-26.5,45.3,11.35,-2.6625,250,-13.3167,155,0,13,7,20
3049,645,Riviere Kanaaupscow,54.36666667,-75.75,2,Fen,285,75,49.6735,24,103,693,-19.6167,12.5667,105,8.625,19.0397,1316.72,18.8,-26.5,45.3,11.35,-2.6625,250,-13.3167,135,0,10,5,15
3050,645,Riviere Kanaaupscow,54.36666667,-75.75,2,Fen,285,75,49.6735,24,103,693,-19.6167,12.5667,105,8.625,19.0397,1316.72,18.8,-26.5,45.3,11.35,-2.6625,250,-13.3167,130,15,23,5,28
3051,645,Riviere Kanaaupscow,54.36666667,-75.75,2,Fen,285,75,49.6735,24,103,693,-19.6167,12.5667,105,8.625,19.0397,1316.72,18.8,-26.5,45.3,11.35,-2.6625,250,-13.3167,200,10,26,7,33
3052,646,Lac Patukami,54.28333333,-75.9,2,Fen,283,78,48.5635,23,103,694,-19.4833,12.4833,106,8.58333,19.0741,1309.19,18.7,-26.3,45,11.4167,-2.58333,249,-13.1833,285,25,17,6,23
3053,646,Lac Patukami,54.28333333,-75.9,2,Bog,283,78,48.5635,23,103,694,-19.4833,12.4833,106,8.58333,19.0741,1309.19,18.7,-26.3,45,11.4167,-2.58333,249,-13.1833,190,0,14,6,20
3054,646,Lac Patukami,54.28333333,-75.9,2,Bog,283,78,48.5635,23,103,694,-19.4833,12.4833,106,8.58333,19.0741,1309.19,18.7,-26.3,45,11.4167,-2.58333,249,-13.1833,130,3,15,7,22
3055,646,Lac Patukami,54.28333333,-75.9,2,Fen,283,78,48.5635,23,103,694,-19.4833,12.4833,106,8.58333,19.0741,1309.19,18.7,-26.3,45,11.4167,-2.58333,249,-13.1833,65,2,20,8,28
3056,646,Lac Patukami,54.365849,-75.768299,2,Bog,286,77,49.4782,24,105,696,-19.55,12.5333,105,8.625,19.0819,1313.23,18.8,-26.4,45.2,11.3333,-2.6375,249,-13.25,70,0,11,5,16
3057,647,Ouest Atikamakw Pachistiwakan,54.91219,-74.873462,2,Fen,278,83,46.1882,25,98,686,-20.2167,12.6667,107,8.05833,17.7888,1348.77,18.6,-26.7,45.3,11.25,-3.14583,247,-14.4,110,50,9,5,14
3058,647,Ouest Atikamakw Pachistiwakan,54.91219,-74.873462,2,Fen,278,83,46.1882,25,98,686,-20.2167,12.6667,107,8.05833,17.7888,1348.77,18.6,-26.7,45.3,11.25,-3.14583,247,-14.4,80,8,20,12,32
3059,647,Ouest Atikamakw Pachistiwakan,54.91219,-74.873462,2,Bog,278,83,46.1882,25,98,686,-20.2167,12.6667,107,8.05833,17.7888,1348.77,18.6,-26.7,45.3,11.25,-3.14583,247,-14.4,265,0,12,6,18
3060,647,Ouest Atikamakw Pachistiwakan,54.91219,-74.873462,2,Fen,278,83,46.1882,25,98,686,-20.2167,12.6667,107,8.05833,17.7888,1348.77,18.6,-26.7,45.3,11.25,-3.14583,247,-14.4,80,45,20,8,28
3073,652,Lac au Bout,51.175709,-77.202031,2,Fen,315,105,41.0108,28,109,831,-17.4333,14.1,127,10.1667,22.1496,1283.06,21.2,-24.7,45.9,13.0167,-0.7,293,-10.4,90,0,14,8,22
3076,654,Nord Ile Kamisiministikuchun,54.782697,-75.654767,2,Fen,285,77,49.2811,23,104,692,-20.25,12.4,105,8.05833,17.8677,1338.69,18.3,-26.8,45.1,11.0667,-3.2875,249,-14.45,50,0,14,8,22
2641,409,Lac Desaulniers,53.56666667,-77.61666667,3,Fen,280,81,48.6871,22,108,688,-19.8,13.1333,95,9.99167,20.9031,1349.19,20.6,-27.2,47.8,7.93333,-2.3375,234,-13.2,75,0,12,2,14
2650,416,Lac Masimakus Pachistiwakan,53.910334,-78.11615,3,Bog,260,78,47.6029,23,98,653,-20.45,13.1833,94,10.0583,20.5692,1381.1,20.7,-28.2,48.9,12.1833,-2.6875,224,-13.9833,125,0,10,2,12
2663,428,Sud Lac Kaysinakusu,53.249154,-78.503246,3,Bog,248,77,45.8745,21,91,643,-19.8333,13.5,93,10.3833,21.1473,1368.19,21.1,-28,49.1,12.6333,-2.05,216,-13.0333,275,0,14,6,20
2664,428,Sud Lac Kaysinakusu,53.249154,-78.503246,3,Fen,248,77,45.8745,21,91,643,-19.8333,13.5,93,10.3833,21.1473,1368.19,21.1,-28,49.1,12.6333,-2.05,216,-13.0333,0,0,10,6,16
2713,453,LG IV,53.805813,-73.807124,3,Fen,295,100,41.5199,29,103,747,-19.8167,13.1833,125,9.475,20.1168,1346.18,19.8,-27.3,47.1,11.7833,-2.54583,272,-13.25,46,0,19,15,34
2714,453,LG IV,53.805813,-73.807124,3,Fen,295,100,41.5199,29,103,747,-19.8167,13.1833,125,9.475,20.1168,1346.18,19.8,-27.3,47.1,11.7833,-2.54583,272,-13.25,138,0,17,3,20
2721,457,Lac Kamusaawach,53.266832,-73.438323,3,Fen,310,110,39.3157,33,110,803,-20.15,12.7833,140,9.775,20.6224,1337.79,19.5,-27.9,47.4,11.4,-2.95417,292,-13.3833,78,0,37,9,46
2722,458,Lac Muriel,54.007117,-73.575221,3,Fen,294,99,41.6794,30,104,741,-20.1833,12.2667,123,8.875,19.3777,1323.38,18.4,-27.4,45.8,11.05,-3.2125,273,-13.8,71,0,15,11,26
2723,458,Lac Muriel,54.007117,-73.575221,3,Fen,294,99,41.6794,30,104,741,-20.1833,12.2667,123,8.875,19.3777,1323.38,18.4,-27.4,45.8,11.05,-3.2125,273,-13.8,112,0,24,8,32
2724,458,Lac Muriel,54.007117,-73.575221,3,Bog,294,99,41.6794,30,104,741,-20.1833,12.2667,123,8.875,19.3777,1323.38,18.4,-27.4,45.8,11.05,-3.2125,273,-13.8,42,2,38,15,53
2728,460,Lac Carmoy,53.651005,-73.385528,3,Bog,308,102,41.8146,32,107,778,-20.3,12.2167,129,9.35833,20.0823,1322.73,18.6,-28,46.6,11,-3.27083,286,-13.6333,56,0,14,12,26
2729,460,Lac Carmoy,53.651005,-73.385528,3,Fen,308,102,41.8146,32,107,778,-20.3,12.2167,129,9.35833,20.0823,1322.73,18.6,-28,46.6,11,-3.27083,286,-13.6333,51,1,32,7,39
2730,461,Lac Chaumont II,53.897614,-69.509409,3,Fen,320,121,39.9953,34,112,807,-21.9833,11.85,123,10.475,21.2906,1367.85,19.2,-30,49.2,10.55,-4.4875,298,-20.85,85,2,27,14,41
2751,473,Lac Chauffours,53.06666667,-70.58333333,3,Fen,338,118,43.3543,33,116,838,-21.5167,12.3167,121,10.6917,21.687,1368.18,19.3,-30,49.3,10.9667,-3.89583,323,-20.3667,44,0,20,3,23
2754,475,Sud Lac Vimond,53.465607,-70.663389,3,Fen,331,108,45.9073,31,115,800,-21.65,11.8167,113,10.2667,21.0383,1355.65,18.7,-30.1,48.8,10.6167,-4.14167,312,-20.5667,92,15,24,11,35
2755,475,Sud Lac Vimond,53.465607,-70.663389,3,Bog,331,108,45.9073,31,115,800,-21.65,11.8167,113,10.2667,21.0383,1355.65,18.7,-30.1,48.8,10.6167,-4.14167,312,-20.5667,132,5,39,13,52
2756,475,Sud Lac Vimond,53.465607,-70.663389,3,Fen,331,108,45.9073,31,115,800,-21.65,11.8167,113,10.2667,21.0383,1355.65,18.7,-30.1,48.8,10.6167,-4.14167,312,-20.5667,102,1,28,10,38
2757,476,Lac Orillat Nord,53.065742,-72.294591,3,Fen,325,113,41.37,36,112,819,-20.3833,12.4167,134,10.1,21.174,1330.77,19.2,-28.5,47.7,11.0833,-3.175,307,-13.3667,145,2,22,7,29
2758,476,Lac Orillat Nord,53.065742,-72.294591,3,Bog,325,113,41.37,36,112,819,-20.3833,12.4167,134,10.1,21.174,1330.77,19.2,-28.5,47.7,11.0833,-3.175,307,-13.3667,45,3,21,8,29
2759,477,Lac de Lionne,53.710936,-71.31595,3,Bog,313,105,44.4109,31,109,767,-21.4667,12.0333,113,9.96667,20.6777,1360.53,18.6,-29.6,48.2,10.8167,-3.95,296,-14.5,47,15,33,7,40
2760,477,Lac de Lionne,53.710936,-71.31595,3,Fen,313,105,44.4109,31,109,767,-21.4667,12.0333,113,9.96667,20.6777,1360.53,18.6,-29.6,48.2,10.8167,-3.95,296,-14.5,75,3,28,11,39
2775,485,Lac Depiace,50.86666667,-75.25,3,Bog,332,125,36.0318,40,111,901,-17.8333,14.05,163,11,23.2558,1290.52,21.5,-25.8,47.3,12.7833,-0.908333,317,-10.2833,200,30,16,5,21
2778,488,Lac Paul-Denis,50.7,-73.43333333,3,Fen,338,170,26.8316,49,119,1009,-18.0333,13.7667,238,11.4,23.8994,1289.07,21.3,-26.4,47.7,12.55,-1.20833,330,-10.65,255,15,20,4,24
2779,489,Lac Opataca,50.464892,-74.76843,3,Bog,342,140,32.9037,43,115,950,-17.7,14.1667,182,11.2583,23.7018,1290.4,21.7,-25.8,47.5,12.8833,-0.795833,324,-10.15,115,2,14,6,20
2781,491,Nord Lac Larabel,51.030119,-74.011958,3,Bog,331,156,28.8215,43,115,965,-18.15,14.0833,221,11.0417,23.0997,1305.1,21.5,-26.3,47.8,12.7,-1.17917,320,-10.85,120,0,11,8,19
2782,491,Nord Lac Larabel,51.030119,-74.011958,3,Fen,331,156,28.8215,43,115,965,-18.15,14.0833,221,11.0417,23.0997,1305.1,21.5,-26.3,47.8,12.7,-1.17917,320,-10.85,145,35,13,3,16
2801,502,Lac Cabot,51.801039,-75.190078,3,Fen,320,117,36.9665,36,109,857,-18.3167,13.8833,156,10.2667,21.844,1306.4,21,-26,47,12.6333,-1.275,298,-11.0667,95,0,16,8,24
2818,515,Ile Bohier,52.384055,-72.262969,3,Fen,330,128,37.1329,41,114,868,-19.85,13.45,153,10.9917,22.3863,1351.03,20.9,-28.2,49.1,11.9667,-2.4625,319,-12.7833,260,45,27,6,33
2819,515,Ile Bohier,52.384055,-72.262969,3,Fen,330,128,37.1329,41,114,868,-19.85,13.45,153,10.9917,22.3863,1351.03,20.9,-28.2,49.1,11.9667,-2.4625,319,-12.7833,100,25,20,2,22
2820,516,Lac Autric,52.113026,-73.268349,3,Bog,320,129,34.0385,41,112,874,-19.05,13.2333,171,10.575,22.2164,1308.57,20.4,-27.2,47.6,11.9833,-1.99583,310,-11.8,85,0,16,8,24
2823,518,Ouest Lac Framont,52.522121,-71.770647,3,Fen,328,125,38.8366,38,114,851,-20.1333,13,141,10.8333,22.1995,1345.1,20.1,-28.7,48.8,11.6333,-2.80833,320,-13.0833,130,40,22,7,29
2824,518,Ouest Lac Framont,52.522121,-71.770647,3,Bog,328,125,38.8366,38,114,851,-20.1333,13,141,10.8333,22.1995,1345.1,20.1,-28.7,48.8,11.6333,-2.80833,320,-13.0833,80,3,25,5,30
2825,519,Lac des Deux Iles,51.860704,-72.567025,3,Fen,350,144,33.9652,48,121,958,-19.9333,11.8,184,10.9083,23.1599,1283.73,19,-28.1,47.1,10.55,-3.3625,344,-12.95,85,25,21,5,26
2826,519,Lac des Deux Iles,51.860704,-72.567025,3,Bog,350,144,33.9652,48,121,958,-19.9333,11.8,184,10.9083,23.1599,1283.73,19,-28.1,47.1,10.55,-3.3625,344,-12.95,50,2,19,6,25
2838,524,Lac Bellin,54.730409,-69.635038,3,Fen,292,112,40.3548,31,103,732,-22.1,9.81667,112,9.46667,20.3147,1306.77,16.7,-29.9,46.6,9.58333,-5.16667,270,-22.1,80,10,26,8,34
2839,524,Lac Bellin,54.730409,-69.635038,3,Fen,292,112,40.3548,31,103,732,-22.1,9.81667,112,9.46667,20.3147,1306.77,16.7,-29.9,46.6,9.58333,-5.16667,270,-22.1,50,58,16,4,20
2840,524,Lac Bellin,54.730409,-69.635038,3,Fen,292,112,40.3548,31,103,732,-22.1,9.81667,112,9.46667,20.3147,1306.77,16.7,-29.9,46.6,9.58333,-5.16667,270,-22.1,165,2,4,1,5
2845,527,Lac Nutapuswananis,52.5,-77.98333333,3,Bog,273,76,47.7265,20,99,693,-18.6167,13.7833,97,10.2417,21.6069,1321.03,21.2,-26.2,47.4,8.78333,-1.3125,237,-11.6167,74,0,14,5,19
2847,529,Riviere Opinaca,52.240248,-77.844189,3,Bog,283,83,46.185,22,103,728,-18.1667,14.1667,103,9.95,21.2154,1320.4,21.4,-25.5,46.9,9,-0.891667,249,-11.1667,59,0,14,5,19
2848,530,Lac Amiskw Matawaw,52.108574,-77.118376,3,Bog,298,93,43.6482,26,108,774,-18.4167,14.0167,116,10,21.4133,1320.56,21.1,-25.6,46.7,12.8167,-1.26667,268,-11.5,48,0,15,7,22
2849,531,Lac Lavigne,52.274533,-73.821809,3,Fen,321,124,35.2177,38,112,866,-19.2667,13.0333,169,10.2417,21.7908,1309.07,19.9,-27.1,47,11.75,-2.24583,306,-12.1333,49,0,18,5,23
2850,532,Lac Kaawaischiskau,52.941364,-72.958112,3,Fen,319,111,39.6975,34,112,826,-20.0167,12.4333,144,10.1417,21.3509,1317.07,19.4,-28.1,47.5,11.15,-2.94583,304,-13,49,0,14,6,20
2859,541,Est Lac du Crapaud,51.668191,-72.714402,3,Bog,357,148,33.4398,47,123,979,-19.7333,11.6333,194,10.7667,23.055,1265.85,18.8,-27.9,46.7,10.4,-3.33333,348,-12.6833,45,0,22,5,27
2860,542,Mont du Lagopede,52.391595,-70.418459,3,Bog,359,136,39.7919,39,129,930,-21.0667,11.5667,147,11.1917,23.1712,1317.51,18.9,-29.4,48.3,10.1667,-4.15417,354,-19.8167,44,1,12,4,16
2861,543,Est Lac Chenu,52.629799,-71.832867,3,Fen,331,119,40.222,37,115,847,-20.3,12.85,139,10.6917,21.9541,1343.64,20,-28.7,48.7,11.45,-2.97083,318,-13.2,66,0,22,9,31
2875,551,Riviere Jolicoeur Nord Est,51.96666667,-78.4,3,Fen,270,76,47.3776,19,94,693,-17.5,14.1333,96,9.40833,20.6323,1294.08,21.1,-24.5,45.6,9.6,-0.545833,236,-10.7,175,30,17,4,21
2876,551,Riviere Jolicoeur Nord Est,51.96666667,-78.4,3,Bog,270,76,47.3776,19,94,693,-17.5,14.1333,96,9.40833,20.6323,1294.08,21.1,-24.5,45.6,9.6,-0.545833,236,-10.7,185,0,11,3,14
2906,566,Kamaschistin I,50.6,-78.55,3,Bog,308,112,39.3011,27,109,826,-16.55,14.6667,125,9.875,21.7991,1272.14,21.8,-23.5,45.3,13.65,-0.0958334,289,-15.4333,300,30,18,8,26
2907,566,Kamaschistin I,50.6,-78.55,3,Fen,308,112,39.3011,27,109,826,-16.55,14.6667,125,9.875,21.7991,1272.14,21.8,-23.5,45.3,13.65,-0.0958334,289,-15.4333,75,35,20,6,26
2908,566,Kamaschistin I,50.6,-78.55,3,Fen,308,112,39.3011,27,109,826,-16.55,14.6667,125,9.875,21.7991,1272.14,21.8,-23.5,45.3,13.65,-0.0958334,289,-15.4333,100,0,12,9,21
2909,567,Riviere Harricana ouest,50.43333333,-79.21666667,3,Bog,303,105,40.5915,27,110,802,-16.6167,15.1167,123,10.525,22.5858,1293.85,22.5,-24.1,46.6,14.1167,0.170833,283,-9.58333,295,0,16,5,21
2910,567,Riviere Harricana ouest,50.43333333,-79.21666667,3,Fen,303,105,40.5915,27,110,802,-16.6167,15.1167,123,10.525,22.5858,1293.85,22.5,-24.1,46.6,14.1167,0.170833,283,-9.58333,90,0,4,1,5
2933,580,Lac Maicasagi NW,49.968846,-76.519528,3,Fen,333,118,39.7882,31,113,883,-16.8333,14.7,135,11.3667,24.031,1279.43,22.4,-24.9,47.3,13.55,-0.0583334,317,-9.38333,48,0,17,2,19
2934,580,Lac Maicasagi NW,49.968846,-76.519528,3,Bog,333,118,39.7882,31,113,883,-16.8333,14.7,135,11.3667,24.031,1279.43,22.4,-24.9,47.3,13.55,-0.0583334,317,-9.38333,42,0,17,5,22
2937,583,Lac Asini Amichapiskach,54.33333333,-72.78333333,3,Fen,290,92,43.9013,30,103,718,-20.8667,12.1667,114,9.11667,19.356,1347.1,18.6,-28.5,47.1,10.8667,-3.7,272,-14.5,190,25,33,16,49
2938,583,Lac Asini Amichapiskach,54.33333333,-72.78333333,3,Fen,290,92,43.9013,30,103,718,-20.8667,12.1667,114,9.11667,19.356,1347.1,18.6,-28.5,47.1,10.8667,-3.7,272,-14.5,110,27,26,8,34
2942,585,Laforge-1,54.23333333,-73.11666667,3,Bog,294,94,43.7089,29,104,725,-20.7,12.35,117,9.15,19.4681,1348.63,18.7,-28.3,47,11.05,-3.48333,271,-14.3,80,0,14,9,23
2943,585,Laforge-1,54.23333333,-73.11666667,3,Fen,294,94,43.7089,29,104,725,-20.7,12.35,117,9.15,19.4681,1348.63,18.7,-28.3,47,11.05,-3.48333,271,-14.3,85,0,26,5,31
2944,585,Laforge-1,54.23333333,-73.11666667,3,Fen,294,94,43.7089,29,104,725,-20.7,12.35,117,9.15,19.4681,1348.63,18.7,-28.3,47,11.05,-3.48333,271,-14.3,80,40,27,10,37
2948,587,Lac Vincelotte,54.482522,-72.262021,3,Bog,287,98,42.8739,30,103,710,-20.9667,11.5833,110,8.51667,18.4343,1328.07,17.8,-28.4,46.2,10.75,-3.99167,268,-14.6333,90,0,15,7,22
2949,587,Lac Vincelotte,54.482522,-72.262021,3,Fen,287,98,42.8739,30,103,710,-20.9667,11.5833,110,8.51667,18.4343,1328.07,17.8,-28.4,46.2,10.75,-3.99167,268,-14.6333,45,40,17,9,26
2950,587,Lac Vincelotte,54.482522,-72.262021,3,Fen,287,98,42.8739,30,103,710,-20.9667,11.5833,110,8.51667,18.4343,1328.07,17.8,-28.4,46.2,10.75,-3.99167,268,-14.6333,80,25,29,9,38
2951,587,Lac Vincelotte,54.482522,-72.262021,3,Fen,287,98,42.8739,30,103,710,-20.9667,11.5833,110,8.51667,18.4343,1328.07,17.8,-28.4,46.2,10.75,-3.99167,268,-14.6333,90,2,14,2,16
3027,632,Lac Wiskicham,54.465976,-77.411238,3,Fen,278,65,53.4909,19,105,659,-20.5333,12.5333,95,9.2,19.5745,1357.94,19.3,-27.7,47,7.43333,-3,234,-14.1833,175,1,8,6,14
3074,653,Riviere Harricana ouest II,50.365492,-79.10699,3,Bog,305,106,40.4527,27,110,811,-16.6333,14.9167,125,10.6333,22.9167,1285.17,22.3,-24.1,46.4,13.8833,0.0583334,287,-9.61667,55,0,15,7,22
3075,653,Riviere Harricana ouest II,50.365492,-79.10699,3,Bog,305,106,40.4527,27,110,811,-16.6333,14.9167,125,10.6333,22.9167,1285.17,22.3,-24.1,46.4,13.8833,0.0583334,287,-9.61667,75,0,11,6,17
3077,655,Lac Kamihkusakaw,54.410902,-77.654732,3,Bog,273,72,51.3557,22,104,660,-20.7333,12.9333,95,9.28333,19.4212,1382.44,19.8,-28,47.8,11.8333,-2.95,232,-14.3667,120,0,13,9,22
3078,656,Long Island,54.8088,-79.598919,3,Fen,219,64,46.4837,20,75,554,-20.2167,11.0333,65,8.15833,18.4578,1297.31,17.2,-27,44.2,11.0333,-3.39583,219,-14.7667,35,0,4,1,5
2649,415,Lac Tilly,53.921626,-73.861778,4,Bog,293,97,42.0873,29,103,741,-19.7333,11.5167,124,8.33333,18.7688,1283.15,17.4,-27,44.4,11.05,-3.11667,270,-13.45,75,0,10,5,15
2653,419,Chisasibi est,53.744677,-78.830826,4,Fen,228,68,45.7867,20,79,590,-20.0667,12.6333,90,9.825,20.2996,1349.42,19.8,-28.6,48.4,12.1167,-2.5375,202,-13.4833,50,0,15,3,18
2683,438,Radisson,53.759771,-77.6667,4,Fen,278,76,50.3344,22,109,675,-19.8833,12.6,94,9.64167,20.5142,1331.43,19.8,-27.2,47,7.6,-2.6125,231,-13.3333,185,5,10,8,18
2684,438,Radisson,53.759771,-77.6667,4,Fen,278,76,50.3344,22,109,675,-19.8833,12.6,94,9.64167,20.5142,1331.43,19.8,-27.2,47,7.6,-2.6125,231,-13.3333,130,1,16,11,27
2732,463,Lac Viau,53.669124,-69.596045,4,Bog,328,122,40.511,34,116,826,-21.75,11.6667,125,10.5,21.6049,1349.41,18.9,-29.7,48.6,10.3833,-4.40833,307,-20.5,30,0,7,3,10
2814,513,Nord Lac du Magyar,51.767779,-72.561618,4,Bog,362,149,33.77,48,124,989,-20.15,11.6,191,10.8333,22.952,1281.43,18.9,-28.3,47.2,10.3,-3.65,352,-13.1667,60,45,17,4,21
2815,513,Nord Lac du Magyar,51.767779,-72.561618,4,Fen,362,149,33.77,48,124,989,-20.15,11.6,191,10.8333,22.952,1281.43,18.9,-28.3,47.2,10.3,-3.65,352,-13.1667,75,0,28,4,32
2816,514,Lac Anorak,51.551205,-73.033707,4,Bog,354,152,31.6854,47,123,992,-19.5333,12.4667,204,10.85,22.9387,1292.46,19.6,-27.7,47.3,11.0833,-2.79167,344,-12.3333,70,35,20,5,25
2817,514,Lac Anorak,51.551205,-73.033707,4,Bog,354,152,31.6854,47,123,992,-19.5333,12.4667,204,10.85,22.9387,1292.46,19.6,-27.7,47.3,11.0833,-2.79167,344,-12.3333,70,10,17,5,22
2821,517,Sud Lac Barou,52.174707,-72.259793,4,Fen,338,130,36.8683,42,117,896,-19.7333,12.4333,161,10.7333,22.5965,1304.7,19.6,-27.9,47.5,11.15,-2.85833,329,-12.7167,240,2,9,2,11
2822,517,Sud Lac Barou,52.174707,-72.259793,4,Fen,338,130,36.8683,42,117,896,-19.7333,12.4333,161,10.7333,22.5965,1304.7,19.6,-27.9,47.5,11.15,-2.85833,329,-12.7167,100,0,8,1,9
2858,540,Est Lac Barou,52.182104,-72.125243,4,Bog,334,130,36.6062,41,116,887,-19.65,12.4,158,10.85,22.8421,1301.06,19.6,-27.9,47.5,11.1833,-2.81667,327,-12.65,70,2,13,3,16
2862,544,Lac Magneron,52.253789,-70.78655,4,Fen,372,143,39.1623,41,132,970,-21.3,11.15,155,11.0583,23.0382,1307.13,18.4,-29.6,48,9.71667,-4.55417,367,-14.2667,41,3,18,3,21
3013,621,Kaustiskach,50.779216,-78.415806,4,Bog,305,111,39.533,26,107,819,-16.4833,14.75,121,9.63333,21.4551,1274.96,21.7,-23.2,44.9,13.75,-3.07E-08,284,-15.4,63,0,10,7,17
3014,621,Kaustiskach,50.779216,-78.415806,4,Bog,305,111,39.533,26,107,819,-16.4833,14.75,121,9.63333,21.4551,1274.96,21.7,-23.2,44.9,13.75,-3.07E-08,284,-15.4,52,0,13,6,19
